@id,@lat,@lon,amenity,int_name,name,name:en,addr:country,addr:city,addr:street,addr:housenumber,addr:postcode,brand,fuel:biodiesel,fuel:octane_95,fuel:octane_98,fuel:diesel,opening_hours,operator,payment:coins,payment:diners_club,payment:mastercard,payment:notes,payment:visa,phone,website;;
309875534,41.9950681,21.4355937,pub,,Ирски паб Св. Патрик,St. Patrick Irish Pub,MK,Cкoпje,Кеј 13 Ноември,,1000,,,,,,10:00-24:00  Fr-Sa 10:00-01:00,,yes,,yes,yes,yes,,http://www.irishpub.com.mk/;;
309894643,41.9953933,21.4315704,restaurant,Pelister,Пелистер,Pelister,,Скопје,Плоштад Македонија,,1000,,,,,,Mo-Th 07:00-00:00; Fr-Sa 07:00-01:00; Su 10:30-00:00,,,,,,,,https://www.pelisterhotel.com.mk/
310289760,42.0001541,21.4167030,cafe,,Broz Cafe,(Still there),,,,,,,,,,,,,,,,,,,;;
310291064,42.0091887,21.3647780,marketplace,,,,,,,,,,,,,,,,,,,,,,;;
310347978,42.0037205,21.3871700,post_office,Makedonska Pošta,Македонска Пошта,Macedonian Post,MK,Скопје,,,1000,,,,,,,Македонска Пошта,,,,,,,http://www.posta.mk;;
310347997,41.9988664,21.3917594,post_office,Makedonska Pošta,Македонска Пошта,Macedonian Post,MK,Скопје,,,1000,,,,,,,Македонска Пошта,,,,,,,http://www.posta.mk;;
310348048,41.9985413,21.3918782,fast_food,,Лап Лап,,,,,,,,,,,,,,,,,,,,;;
310348362,42.0041706,21.3959586,post_office,Makedonska Pošta,Македонска Пошта,Macedonian Post,MK,Скопје,,,1000,,,,,,,Македонска Пошта,,,,,,,https://www.posta.com.mk/;;
310348494,42.0036936,21.3946845,atm,Stopanska Banka,Стопанска Банка,Stopanska Banka,,,Булевар Партизански Одреди,70b,,,,,,,,Стопанска Банка АД - Скопје,,,,,,,;;
364055426,42.0099438,21.3714984,fuel,,Лукоил,,,,,,,,no,yes,yes,,,,,,,,,,;;
365240253,42.0091616,21.3638036,post_office,Makedonska Pošta,Македонска Пошта,Macedonian Post,MK,Скопје,,,1000,,,,,,,Македонска Пошта,,,,,,,http://www.posta.mk;;
365832510,41.9945277,21.4351265,cinema,Kino Milenium,кино Милениум,Milenium Cinema,MK,Cкoпje,Кеј 13 Ноември,,1000,,,,,,09:30-01:00,,,,,,,+389 2 3120389,http://kinomilenium.mk;;
365839893,41.9775042,21.4212148,parking,,,,,,,,,,,,,,,,,,,,,,;;
367045844,41.9927745,21.3171341,fuel,,,,,,,,,,,,,,,,,,,,,,;;
367675829,42.0061233,21.3816633,pharmacy,,Ремедиум,Remedium,,,,,,,,,,,,,,,,,,,;;
369776669,41.9746802,21.4542071,fuel,,Супертрејд,,,,,,,,,,,,,,,,,,,,;;
370651330,41.9918820,21.4273351,pharmacy,,,,,,,,,,,,,,,,,,,,,,;;
371129575,41.9936657,21.4428736,bank,,НБРМ,,,,,,,,,,,,,Народна банка на Македонија (НРБМ),,,,,,,;;
376888383,41.9962482,21.4280449,parking,,,,,,,,,,,,,,,,,,,,,,;;
386744780,41.9921343,21.4266335,atm,,Шпаркасе,Sparkasse,,,,,,,,,,,,Шпаркасе,,,,,,,;;
386746691,41.9967812,21.4369533,parking_entrance,,,,,,,,,,,,,,,,,,,,,,;;
386746863,41.9967331,21.4364130,parking,,Паркинг МОБ,MOB Carpark,,,,,,,,,,,,,,,,,,,;;
411006922,41.9947432,21.4140669,restaurant,,Интермецо,,,,,,,,,,,,,,,,,,,,;;
411008299,41.9948867,21.4232268,cafe,,Benneton,,,,,,,,,,,,,,,,,,,,;;
411008532,41.9948604,21.4230113,cafe,,AMG,,,,,,,,,,,,,,,,,,,,;;
411009859,41.9955693,21.4253358,cafe,,Strip,,,,Dimitrija Cupovski,24,,,,,,,,,,,,,,,;;
411010191,41.9956368,21.4268858,nightclub,,Клуб Авенија,Club Avenue,,,,,,,,,,,,,,,,,,,;;
416030019,41.9881468,21.4552843,bank,Stopanska Banka,Стопанска Банка,Stopanska Banka,,,,,,,,,,,,Стопанска Банка АД - Скопје,,,,,,,;;
416030021,41.9881141,21.4550700,bank,,Охридска Банка,,,,Булевар Јане Сандански,12,,,,,,,,,,,,,,,;;
416393909,42.0371466,21.4253841,place_of_worship,,,,,,,,,,,,,,,,,,,,,,;;
416411687,42.0079825,21.3842855,atm,,,,,,,,,,,,,,,Уни Банка,,,,,,,;;
416411754,42.0043009,21.3847909,atm,,,,,,,,,,,,,,,Уни Банка,,,,,,,;;
416411856,42.0058046,21.4171593,atm,,,,,,,,,,,,,,,Уни Банка,,,,,,,;;
428060078,42.0318444,21.4031924,parking,,,,,,,,,,,,,,,,,,,,,,;;
429175192,41.9768256,21.4438183,restaurant,,Журнал,,,,,,,,,,,,,,,,,,,,;;
432028998,41.9955723,21.5095269,fountain,,Fontana,,,,,,,,,,,,,,,,,,,,;;
432028999,41.9956704,21.5095817,drinking_water,,,,,,,,,,,,,,,,,,,,,,;;
441057694,42.0051454,21.4082395,cafe,,Cafeteria,,,,,,,,,,,,,,,,,,,,;;
443017384,41.9953026,21.5038680,drinking_water,,,,,,,,,,,,,,,,,,,,,,;;
443017386,41.9953559,21.5039722,waste_basket,,,,,,,,,,,,,,,,,,,,,,;;
443017388,41.9947329,21.5037719,waste_basket,,,,,,,,,,,,,,,,,,,,,,;;
443017395,41.9967167,21.4998343,atm,,Komercijalna Banka,,,,,,,,,,,,,Комерцијална Банка,,,,,,,;;
443017396,41.9964256,21.4996627,pharmacy,,,,,,,,,,,,,,,,,,,,,,;;
443017399,41.9954834,21.5039025,pharmacy,Gradska Apteka Madžari,Градска Аптека Маџари,,,,,,,,,,,,,,,,,,,,;;
443017416,41.9958519,21.4993803,drinking_water,,,,,,,,,,,,,,,,,,,,,,;;
443017417,41.9958290,21.4996552,fountain,,,,,,,,,,,,,,,,,,,,,,;;
443017603,41.9956663,21.5003987,telephone,,,,,,,,,,,,,,,Makedonski Telekom,,,,,,,;;
444938811,41.9984708,21.4226797,pharmacy,,Зегин,Zegin,,,,,,,,,,,24/7,,,,,,,,;;
444994545,42.0023086,21.4626489,pharmacy,,Зегин,,,,,,,,,,,,,,,,,,,,;;
444994811,42.0026330,21.4646210,pharmacy,,,,,,,,,,,,,,,,,,,,,,;;
445422613,42.0072516,21.4871217,restaurant,,Hunter’s Lodge “Kamnik”,,,,,,,,,,,,,,,,,,,,http://www.kamnik.com.mk/;;
445893304,41.9947703,21.4138028,bar,,нола Бар,Nola Bar,MK,Скопје,Митрополит Теодосиј Гологанов,67,1000,,,,,,Mo-Fr 09:00-24:00; Sa Su 00:00-01:00 09:00-24:00,,,,,,,+389 2 2444542,http://hotelimakedonija.com.mk/en/Restaurant/1073/In-Vino-Restaurant;
446278123,41.9934009,21.4262775,parking,,,,,,,,,,,,,,,,,,,,,,;;
446285567,41.9988883,21.3918760,hospital,,Систина,,,,,,,,,,,,,,,,,,,,;;
446307169,41.9905807,21.4458112,bus_station,,Автобуска Станица Скопје,Central Bus Station Skopje,,,,,,,,,,,,,,,,,,,;;
446307170,41.9949620,21.4291916,taxi,,,,,,,,,,,,,,,,,,,,,,;;
446307171,41.9920033,21.4459800,post_box,,,,,,,,,,,,,,,,,,,,,,;;
459657837,41.9941058,21.4165486,taxi,,,,,,,,,,,,,,,,,,,,,,;;
459658141,41.9932127,21.4214238,taxi,,,,,,,,,,,,,,,,,,,,,,;;
459663482,41.9966492,21.4065094,atm,,,,,,,,,,,,,,,,,,,,,,;;
459666031,42.0069784,21.4139237,cafe,,,,,,,,,,,,,,,,,,,,,,;;
459668143,42.0047876,21.4307036,restaurant,,Под Кале,,,,,,,,,,,,,,,,,,,,;;
459668824,41.9951019,21.4345059,bar,,,,MK,,,,,,,,,,,,,,,,,,;;
459668914,41.9943261,21.4342799,restaurant,,Кај Џино,Gino,,,,,,,,,,,Mo 08:00-24:00  Tu We Fr Sa 09:00-24:00  Th 09:00-23:00  Su 09:00-01:00,,,,,,,+389 2 3121109,http://www.restorangino.mk/;;
459669063,41.9952456,21.4350117,restaurant,Plaza de Toros,Плаза де Торос,,MK,Cкoпje,Кеј 13 Ноември,,1000,,,,,,,,,,,,,,;;
459669736,41.9950445,21.4332098,pharmacy,,,,,,,,,,,,,,,,,,,,,,;;
459670407,41.9947783,21.4335756,bank,,,,,,,,,,,,,,,Уни Банка,,,,,,,;;
459670746,41.9957098,21.4332758,bank,Stopanska Banka,Стопанска банка,Stopanska Banka,,,,,,,,,,,,Стопанска Банка АД - Скопје,,,,,,,;;
459670767,41.9952414,21.4310013,cafe,,Caffe Skopje,,,Скопје,Македонија,,1000,,,,,,Mo-Su 08:00-23:00,,,,,,,,;;
459670881,41.9926530,21.4298360,cafe,,Play Cafe,Play Cafe,,Скопје,Македонија,,1000,,,,,,Mo-Su 09:00-21:00,,,,,,,,;;
459672751,41.9939731,21.4164328,cafe,,,,,,,,,,,,,,,,,,,,,,;;
459673240,41.9934306,21.4162239,cafe,,9,,,,,,,,,,,,,,,,,,,,;;
459673288,41.9932326,21.4154083,pharmacy,,Зегин,,,,,,,,,,,,,,,,,,,,;;
459673413,41.9931627,21.4158549,bar,,,,,,,,,,,,,,,,,,,,,,;;
459678554,42.0088854,21.3835053,car_wash,,,,,,,,,,,,,,,,,,,,,,;;
459752642,41.9984414,21.4373453,cafe,,Bistro Opera Pub,,,,,,,,,,,,24/7,,,,,,,,;;
459801246,42.0031059,21.3999451,cafe,,Мартини,,,,,,,,,,,,,,,,,,,,;;
459802458,42.0047028,21.4159604,cafe,,Бугати,Bugatti,,,,,,,,,,,,,,,,,,,;;
463297973,42.0148173,21.3935981,car_wash,,,,,,,,,,,,,,,,,,,,,,;;
470409981,42.0690911,21.3001786,place_of_worship,,Манастир Св. Ѓорѓија,,,,,,,,,,,,,,,,,,,,;;
470410341,42.0385762,21.3307823,place_of_worship,,Sv. Mala Bogorodica,,,,,,,,,,,,,,,,,,,,;;
470602774,41.9937524,21.4362908,taxi,,1/1,,,,,,,,,,,,,,,,,,,,;;
470616425,41.9880653,21.4158375,school,,Бели Мурги,,,,,,,,,,,,,,,,,,,,;;
470916907,42.0003611,21.4268596,fast_food,,Жито Леб,,,,,,,,,,,,,,,,,,,,;;
471352744,41.9392224,21.5140655,police,,,,,,,,,,,,,,,,,,,,,,;;
471353123,41.9388114,21.5151714,taxi,,,,,,,,,,,,,,,,,,,,,,;;
471353125,41.9396086,21.5142602,fire_station,,,,,Драчево,Иван Хаџиниколов,,1000,,,,,,,,,,,,,,;;
471353612,41.9390697,21.5146591,pharmacy,,,,,,,,,,,,,,,,,,,,,,;;
471353929,41.9382379,21.5179837,parking,,,,,,,,,,,,,,,,,,,,,,;;
474050015,41.9669829,21.4714115,fuel,,,,,,,,,,,,,,,,,,,,,,;;
475380843,41.9944507,21.4166263,car_wash,,Car Wash,,,,,,,,,,,,,,,,,,,,;;
475380851,41.9930802,21.4222865,car_wash,,Pit Stop,,,,,,,,,,,,,,,,,,,,;;
479803481,42.0064220,21.3825263,hospital,,Eye Center VIZIA,,,,,,,,,,,,,,,,,,,,;;
480473248,42.0060489,21.5078737,parking,,,,,,,,,,,,,,,,,,,,,,;;
481098096,42.0031464,21.3995191,restaurant,,Енрико,,,,,,,,,,,,,,,,,,,,;;
482742555,41.9631717,21.5592169,doctors,Kordis1,Кордис1,,,,,,,,,,,,,,,,,,,,;;
482742598,41.9801492,21.5279135,doctors,,Kordis3,,,,,,,,,,,,,,,,,,,,;;
483351867,42.0131109,21.4365368,parking,,,,,,,,,,,,,,,,,,,,,,;;
484691167,41.9943778,21.5084304,pharmacy,,Intergral Farm,,,,,,,,,,,,,,,,,,,,;;
504016147,41.9996401,21.5705814,fuel,Makpetrol,Макпетрол,Makpetrol,,,,,,,,,,,,,,,,,,,;;
512197803,42.0220339,21.4403563,place_of_worship,,Св. Никола,,MK,Cкoпje,,,1000,,,,,,,,,,,,,,;;
523545976,42.0067886,21.5077859,place_of_worship,,Св. Архангел Гаврил,,,Скопје,Финска,24,1000,,,,,,,,,,,,,,;;
529411995,42.0234766,21.3427234,place_of_worship,Sv. Arhangel Gavril,Св. Архангел Гаврил,,,,,,,,,,,,,,,,,,,,;;
547985718,41.9860412,21.4428016,bank,,Тутунска Банка,,,,3та Македонска Бригада бр.1,20,,,,,,,,Тутунска Банка,,,,,,,;;
552740006,42.0400275,21.4237545,green_market,,Пазар Шутка,,,,,,,,,,,,,,,,,,,,;;
552740008,42.0387406,21.4242968,kindergarten,,,,,,,,,,,,,,,,,,,,,,;;
552740011,42.0374713,21.4252136,hospital,,,,,,,,,,,,,,,,,,,,,,;;
552769113,42.0311804,21.4447847,bank,,Халкбанк,,,,,,,,,,,,,,,,,,,,;;
552769142,42.0321141,21.4448739,post_office,,Пошта Бутел,,,,,,,,,,,,,,,,,,,,;;
552781811,42.0401876,21.4453940,school,,ООУ „Свети Климент Охридски“ - Бутел,,,,,,,,,,,,,Општина Бутел,,,,,,,https://www.facebook.com/klimentohridskibutel;;
552858981,42.0241252,21.4336015,service_station,,,,,,,,,,,,,,,,,,,,,,;;
553014546,41.9933749,21.4096304,drinking_water,,,,,,,,,,,,,,,,,,,,,,;;
553425017,41.9957302,21.4302534,pub,,London Pub,,,Скопје,Никола Вапцаров,2/4,1000,,,,,,,Македонијатурист,,,,,,,;;
553868046,41.9983639,21.4355617,school,,Музичко-балетско училиште „Илија Николовски - Луј“,,,,,,,,,,,,,,,,,,,,;;
566831234,41.9894261,21.4602903,post_box,,Posta Tri biseri,,,,,,,,,,,,,,,,,,,,;;
577538732,42.0197172,21.4348299,parking,,,,,,,,,,,,,,,,,,,,,,;;
577538782,42.0198926,21.4349372,restaurant,,Prince,,,,,,,,,,,,,,,,,,,,;;
600905655,42.0028498,21.3926682,restaurant,,Две капки,Bosphorus Turkish Restaurant,,,Хелсинки,158а,,,,,,,,,,,,,,,;;
696669231,41.9869006,21.4368796,restaurant,,иВ,iV,,,,,,,,,,,,,,,,,,,;;
696669607,41.9873374,21.4363786,parking,,,,,,,,,,,,,,,,,,,,,,;;
738836547,41.9825660,21.4363017,school,,Партенија Зографски,,,,,,,,,,,,,,,,,,,,;;
802114057,41.9504607,21.3004228,ferry_terminal,,,,,,,,,,,,,,,,,,,,,,;;
892589214,41.9928198,21.4415512,parking,,Веро Центар,,,,,,,,,,,,,,,,,,,,;;
892589441,41.9932121,21.4417550,bar,,,,,,,,,,,,,,,,,,,,,,;;
901296522,41.9827858,21.4749643,post_office,,Пошта,,,,,,,,,,,,,,,,,,,,;;
908273280,42.0001669,21.4369808,bar,,Клуб Капан Ан,,,,,,,,,,,,,,,,,,,,;;
908273297,42.0004368,21.4356419,fountain,,,,,,,,,,,,,,,,,,,,,,;;
908273418,42.0030897,21.4370514,fountain,,,,,,,,,,,,,,,,,,,,,,;;
908273433,42.0003099,21.4367576,restaurant,,Туpиcт,Turist,,,,,,,,,,,,,,,,,,,;;
918585392,41.9879934,21.4313748,arts_centre,,Арт Институт,,,,Железничка,,,,,,,,,,,,,,,,;;
918588582,41.9881824,21.4314928,parking,,,,,,,,,,,,,,,,,,,,,,;;
918590533,41.9870500,21.4313196,fast_food,,four seasons,,,,,,,,,,,,,,,,,,,,;;
933634409,41.9896275,21.4597832,fast_food,,Fast food 7,,,,,,,,,,,,,,,,,,,,;;
960087107,42.0029173,21.4504550,parking,,Паркинг за вработени,,,,,,,,,,,,,,,,,,,,;;
1092272132,42.0064872,21.3510028,restaurant,,,,,,,,,,,,,,,,,,,,,,;;
1092272137,42.0080827,21.3388850,hospital,,,,,,,,,,,,,,,,,,,,,,;;
1092272145,42.0077080,21.3381661,hospital,,,,,,,,,,,,,,,,,,,,,,;;
1092272150,42.0087603,21.3394643,hospital,,,,,,,,,,,,,,,,,,,,,,;;
1092272161,42.0079392,21.3368690,school,,,,,,,,,,,,,,,,,,,,,,;;
1092272194,42.0093343,21.3638354,post_office,Makedonska Pošta,Македонска Пошта,Macedonian Post,MK,Скопје,Булевар Партизански Одреди,161,1000,,,,,,,Македонска Пошта,,,,,,,http://www.posta.mk;;
1092272202,42.0061694,21.3504442,taxi,,Такси Теникс,Taxi Teniks,,,Булевар Ѓорче Петров,71/1-2,1000,,,,,,24/7,,,,,,,+38971209194,https://taxi-teniks.business.site/;;
1092300445,42.0481616,21.3467492,hospital,,,,,,,,,,,,,,,,,,,,,,;;
1092300453,42.0475641,21.3437725,post_box,,,,,,,,,,,,,,,,,,,,,,;;
1092300529,42.0453253,21.3459612,post_box,,,,,,,,,,,,,,,,,,,,,,;;
1092300592,42.0380108,21.3488440,pharmacy,,,,,,,,,,,,,,,,,,,,,,;;
1132688809,41.9953819,21.3274583,restaurant,,River Side Garden,,,,,,,,,,,,,,,,,,,+38970890606,;;
1226193401,41.9920661,21.4309792,parking,,,,,,,,,,,,,,,,,,,,,,;;
1226193402,41.9921857,21.4325563,parking,,,,,,,,,,,,,,,,,,,,,,;;
1263400456,42.0050000,21.5042995,post_office,,Пошта Ченто,,,,,,,,,,,,,Macedonian Post,,,,,,,;;
1263404490,42.0045010,21.5038977,marketplace,,Пазарче Ченто,,,,,,,,,,,,,,,,,,,,;;
1307183572,42.0050280,21.3833142,bank,,Тутунска Банка Карпош 4,,,,,,,,,,,,,НЛБ - Тутунска Банка,,,,,,,;;
1316864761,41.9384903,21.5175252,post_office,,,,,,,,,,,,,,,,,,,,,,;;
1355292490,42.0009888,21.4172620,cafe,,Кафе Змија,,,,,,,,,,,,,,,,,,,,;;
1355306911,42.0007963,21.4175044,cafe,,Кафе Филипос,,,,Благој Давков,2,,,,,,,,,,,,,,,;;
1355330790,42.0011509,21.4175412,pub,,Кафе Кино Карпош,,,,,,,,,,,,,,,,,,,,;;
1355336585,42.0008922,21.4173939,fast_food,,Сендвичара Попе,,,,,,,,,,,,,,,,,,,,;;
1357097237,42.0244681,21.3507382,fuel,Makpetrol,Макпетрол,Makpetrol,,,,,,,,,,,,,,,,,,,;;
1357155803,42.0183708,21.3558666,kindergarten,,Градинка Мирче Ацев,,,,,,,,,,,,,,,,,,,,;;
1371716593,41.9979155,21.4122694,restaurant,,Топаз,,,,Рузвелтова,25,,,,,,,,,,,,,,,;;
1372568001,42.0008550,21.3989291,restaurant,,Веки,,,,Варшавска,14,,,,,,,,,,,,,,,;;
1377184494,42.0013936,21.4960141,restaurant,,Велково Меанче,,,,,,,,,,,,,,,,,,,,;;
1378130151,41.9841333,21.4390455,restaurant,,Чешма,,,,,,,,,,,,,,,,,,,,;;
1378130158,41.9832440,21.4391421,restaurant,,,,,,,,,,,,,,,,,,,,,,;;
1378228324,41.9710708,21.4455687,restaurant,,Ресторан Трпеза,,,,,,,,,,,,,,,,,,,,;;
1378228333,41.9787578,21.4385091,restaurant,,Ресторан Кум,,,,,,,,,,,,,,,,,,,,;;
1378241476,41.9824944,21.4357786,kindergarten,,Игротека Робин Худ,,,,,,,,,,,,,,,,,,,,;;
1380378665,41.9997295,21.4078483,restaurant,,Рустикана,Rustikana,,,Римска,6,1000,,,,,,Mo-Su 10:00-00:00,Saso Gligorovski Tate,,,,,,+38971383382,;;
1380378702,41.9985008,21.4159820,restaurant,,Боеми,,,,,,,,,,,,,,,,,,,,;;
1381590834,41.9757689,21.4411963,school,,Дом за Слепи,,,,,,,,,,,,,,,,,,,,;;
1381604857,41.9703449,21.4420010,hospital,,Болница за зависности,,,,,,,,,,,,,,,,,,,,;;
1381606894,41.9869370,21.4346369,hospital,,Адриалаб,,,,,,,,,,,,,,,,,,,,;;
1381654588,41.9990725,21.4217901,fast_food,,Гирадико,,,,,,,,,,,,,,,,,,,,;;
1381708720,42.0177183,21.4304245,fuel,Makpetrol,Макпетрол,Makpetrol,MK,Cкoпje,,,1000,Макпетрол,yes,yes,yes,yes,24/7,Makpetrol,yes,yes,yes,yes,yes,,http://makpetrol.mk;;
1382090803,41.9835895,21.4295599,pharmacy,,Apteka Biofit,,,,,,,,,,,,,,,,,,,,;;
1382090805,41.9940569,21.4008928,pharmacy,,Apteka Biofit,,,,,,,,,,,,,,,,,,,,;;
1475324917,42.0609829,21.3489729,place_of_worship,,Манастир Св. 40 Маченици,,,,,,,,,,,,,,,,,,,,;;
1475328750,42.0464013,21.3462963,restaurant,,Restoran Tomi,,,,,,,,,,,,,,,,,,,,;;
1475331128,42.0598924,21.2983618,place_of_worship,,Св. Атанас,,,,,,,,,,,,,,,,,,,,;;
1475334320,42.0608563,21.3158452,place_of_worship,,Crkva Sv.Tripun,,,,,,,,,,,,,,,,,,,,;;
1475338943,42.0588370,21.3069591,drinking_water,,,,,,,,,,,,,,,,,,,,,,;;
1475338952,42.0706251,21.2998727,drinking_water,,,,,,,,,,,,,,,,,,,,,,;;
1475356446,42.0493212,21.3388559,place_of_worship,,Св. Петка,,,,,,,,,,,,,,,,,,,,;;
1475356448,42.0453410,21.3458992,telephone,,,,,,,,,,,,,,,,,,,,,,;;
1475356449,42.0500064,21.3393280,place_of_worship,,Св. Атанас,,,,,,,,,,,,,,,,,,,,;;
1475384933,42.0628516,21.3036170,shelter,,,,,,,,,,,,,,,,,,,,,,;;
1475384935,42.0648460,21.3030749,shelter,,,,,,,,,,,,,,,,,,,,,,;;
1475384945,42.0455608,21.3469347,restaurant,,,,,,,,,,,,,,,,,,,,,,;;
1475388226,42.0282732,21.3543483,townhall,,,,,,,,,,,,,,,,,,,,,,;;
1475388229,42.0306680,21.3498744,fast_food,,,,,,,,,,,,,,,,,,,,,,;;
1475388232,42.0299906,21.3508185,restaurant,,Meraklii,,,,,,,,,,,,,,,,,,,,;;
1475388233,42.0313055,21.3479915,cafe,,,,,,,,,,,,,,,,,,,,,,;;
1475388239,42.0308712,21.3488605,fast_food,,,,,,,,,,,,,,,,,,,,,,;;
1475388240,42.0316681,21.3482758,fast_food,,,,,,,,,,,,,,,,,,,,,,;;
1475404508,42.0073792,21.3682515,bank,,Stopanska banka,,,,,,,,,,,,,,,,,,,,;;
1475404511,42.0069568,21.3651275,restaurant,,,,,,,,,,,,,,,,,,,,,,;;
1475404512,42.0069591,21.3654634,atm,,,,,,,,,,,,,,,,,,,,,,;;
1475404520,42.0074334,21.3682759,atm,,,,,,,,,,,,,,,,,,,,,,;;
1475404521,42.0069073,21.3667670,car_wash,,,,,,,,,,,,,,,,,,,,,,;;
1475404523,42.0063452,21.3681939,bank,,Тутунска банка,,,,,,,,,,,,,,,,,,,,;;
1475404526,42.0075172,21.3683899,bank,,Komercijalna banka,,,,,,,,,,,,,,,,,,,,;;
1475404531,42.0078102,21.3695897,fast_food,Pink,Пинк,Pink,,,,,,,,,,,,,,,,,,,;;
1475404532,42.0075098,21.3683049,atm,,,,,,,,,,,,,,,,,,,,,,;;
1475404533,42.0069351,21.3650349,bank,,Komercijalna banka,,,,,,,,,,,,,,,,,,,,;;
1475404534,42.0077040,21.3645442,toilets,,,,,,,,,,,,,,,,,,,,,,;;
1477313296,42.0164585,21.3568700,pharmacy,,,,,,,,,,,,,,,,,,,,,,;;
1477313388,42.0186405,21.3544426,fast_food,,,,,,,,,,,,,,,,,,,,,,;;
1477313456,42.0184891,21.3546974,fast_food,,,,,,,,,,,,,,,,,,,,,,;;
1529526890,42.0125693,21.4358034,parking,,,,,,,,,,,,,,,,,,,,,,;;
1535266560,41.9782792,21.4820381,restaurant,,Ресторан Рагуза 919,Restaurant Ragusa 919,,,,,,,,,,,,,,,,,,,;;
1562023466,41.9993401,21.4358564,bar,,Hürrem,Menada,,,,,,,,,,,,,,,,,,,;;
1577483516,42.0035286,21.3975417,restaurant,Staro Bure,Старо Буре,,,,,,,,,,,,,,,,,,,,;;
1577485903,42.0063716,21.3749001,taxi,,Taxi stop,,,,,,,,,,,,,,,,,,,,;;
1577485951,42.0065185,21.3741187,restaurant,At 62,62,,,,,,,,,,,,,,,,,,,,;;
1577486961,42.0023156,21.3761084,pharmacy,,,,,,,,,,,,,,,,,,,,,,;;
1615760049,42.0036469,21.3970663,bank,,НЛБ Тутунска Банка,NLB Tutunska Banka,,,,,,,,,,,,,,,,,,,;;
1615830879,42.0034224,21.3983460,cafe,,Fluid,Fluid,,,,,,,,,,,,,,,,,,,;;
1615832328,42.0032564,21.3978776,pharmacy,,Zegin,Zegin,,,,,,,,,,,,,,,,,,,;;
1615847558,42.0034289,21.3985661,pharmacy,,Херба,,,,,,,,,,,,,,,,,,,,;;
1615854393,42.0035990,21.3985653,casino,,клуб Астра,,MK,Cкoпje,,,1000,,,,,,,,,,,,,,;;
1615856817,42.0031153,21.3989023,atm,Šparkase,Шпаркасе,Sparkasse,MK,Cкoпje,,,1000,,,,,,,Шпаркасе Банка Македонија АД Скопје,,,,,,,;;
1618605216,41.9916695,21.4244409,bank,,Зират Банка,Zirat Bank,,,Железничка,,,Halkbank,,,,,,,,,,,,,;;
1652699470,41.9919776,21.4219509,pharmacy,,Уни Медикал,,,,Бел камен,9,,,,,,,,,,,,,,,;;
1654267024,42.0105650,21.3399884,bus_station,,Deksion Stanica (5),,,,,,,,,,,,,,,,,,,,;;
1654273147,42.0006992,21.3780662,bus_station,,Stanica Dolno Nerezi (5),,,,,,,,,,,,,,,,,,,,;;
1654304622,41.9796958,21.4881029,bus_station,,Последна 17,,,,,,,,,,,,,,,,,,,,;;
1654304649,41.9693543,21.4484468,bus_station,,,,,,,,,,,,,,,,,,,,,,;;
1654312445,41.9861191,21.4845048,bus_station,,Ново Лисиче Последна 5  15  35,,,,Булевар Февруарски Поход,,,,,,,,,,,,,,,,;;
1676857177,41.9843967,21.4871492,restaurant,,Рибен ресторан Рибар (Одисеја),,,,,,,,,,,,,,,,,,,,;;
1691667363,42.0198986,21.4353712,parking,,,,,,,,,,,,,,,,,,,,,,;;
1691667375,42.0203130,21.4348079,parking,,,,,,,,,,,,,,,,,,,,,,;;
1706638699,42.0149698,21.4508428,place_of_worship,,св.Константин и Елена,,,,,,,,,,,,,,,,,,,,;;
1709622136,41.9934839,21.4174819,company,,Asseco SEE (Macedonia),,,,,,,,,,,,,,,,,,,,;;
1734390989,42.0566059,21.3047327,drinking_water,,,,,,,,,,,,,,,,,,,,,,;;
1734402559,42.0516811,21.3110834,place_of_worship,,Sv. Krstovden,,,,,,,,,,,,,,,,,,,,;;
1734405545,42.0592027,21.3083108,place_of_worship,,Sv. Spas-Kuckovo,,,,,,,,,,,,,,,,,,,,;;
1734431810,42.0310761,21.3480899,taxi,,,,,,,,,,,,,,,,,,,,,,;;
1734513473,42.0066455,21.3337137,restaurant,,,,,,,,,,,,,,,,,,,,,,;;
1734513478,42.0073873,21.3362989,restaurant,,,,,,,,,,,,,,,,,,,,,,;;
1734513520,42.0058248,21.3457080,car_wash,,,,,,,,,,,,,,,,,,,,,,;;
1734513526,42.0069568,21.3494739,veterinary,,,,,,,,,,,,,,,,,,,,,,;;
1734530400,42.0067805,21.3651314,restaurant,,,,,,,,,,,,,,,,,,,,,,;;
1734530424,42.0069010,21.3508793,kindergarten,,Gradinka Mirce Acev,,,,,,,,,,,,,,,,,,,,;;
1734530428,42.0077620,21.3631424,bench,,,,,,,,,,,,,,,,,,,,,,;;
1734566388,42.0660807,21.3357012,place_of_worship,,Џамија Никиштане,,,,,,,,,,,,,,,,,,,,;;
1734573027,42.0456740,21.3465234,drinking_water,,,,,,,,,,,,,,,,,,,,,,;;
1734579717,42.0698583,21.3939664,place_of_worship,,,,,,,,,,,,,,,,,,,,,,;;
1735110375,42.0540808,21.3135461,place_of_worship,,Sv.Petka-Kuckovo,,,,,,,,,,,,,,,,,,,,;;
1747462360,41.9970120,21.4150033,pub,,Конак,,,,,,,,,,,,,,,,,,,,;;
1747627317,41.9860650,21.4331367,hospital,,,,,,,,,,,,,,,,,,,,,,;;
1747649203,41.9946274,21.4151525,restaurant,,Крчма,,,,,,,,,,,,,,,,,,,,;;
1747809672,41.9809577,21.4323949,post_office,Makedonska Pošta,Македонска Пошта,Macedonian Post,MK,Скопје,,,1000,,,,,,,Македонска Пошта,,,,,,,http://www.posta.mk;;
1747986303,41.9869002,21.4308199,pharmacy,,Зегин,,,,,,,,,,,,,,,,,,,,;;
1747986348,41.9876902,21.4327574,bank,,,,,,,,,,,,,,,Стопанска Банка,,,,,,,;;
1748017584,41.9904847,21.4204907,restaurant,,Marana,,,Скопје,,,,,,,,,,,,,,,,,;;
1748378521,41.9988465,21.4198668,pharmacy,,,,,,,,,,,,,,,,,,,,,,;;
1750188221,42.0026269,21.4074590,taxi,,,,,,,,,,,,,,,,,,,,,,;;
1751563134,41.9947645,21.4245254,restaurant,,Pastel Wine & Dine,Pastel Wine & Dine,MK,Cкoпje,Булевар Климент Охридски,66,,,,,,,Mo-Fr 06:30-21:00; Sa 06:30-17:00; Su 06:30-16:00,,yes,,yes,yes,yes,+389 2 3214447,http://pastel.mk/
1752178268,41.9922398,21.4163482,restaurant,,511,,,,,,,,,,,,,,,,,,,,;;
1752184797,41.9972910,21.4091295,cafe,,Ли,Lee,,,,,,,,,,,,,,,,,,,;;
1752186795,41.9972291,21.4086601,restaurant,,Акорд,Acorde,,,,,,,,,,,,,,,,,,,;;
1752188289,41.9967522,21.4073092,school,,ИТ Академија Александрија,IT Academy Alexandria,,,,,,,,,,,,,,,,,,,;;
1770866402,41.9987097,21.4207447,restaurant,,Пицерија Либертас,,,,T.C Bunjakovec prv kat lok 36,,1000,,,,,,,,,,,,,+38970567295,;;
1822907697,42.0007595,21.3899358,fast_food,Vili - Grill,Лесковачка скара „Вили“,,,,,,,,,,,,,,,,,,,,;;
1831180502,41.9505936,21.2991931,place_of_worship,Manastir Sv. Andrej,Манастир Св. Андреј,Monastery St. Andrej,,,,,,,,,,,,,,,,,,,;;
1831247821,41.9518330,21.3042042,place_of_worship,Sv. Nikola,Св. Никола,,,,,,,,,,,,,,,,,,,,;;
1831247894,41.9503931,21.2995674,ferry_terminal,,,,,,,,,,,,,,,,,,,,,,;;
1838584437,41.9938724,21.4348949,parking_entrance,,,,,,,,,,,,,,,,,,,,,,;;
1848409293,41.9775109,21.4456487,restaurant,,Ексклузив,,,,,,,,,,,,,,,,,,,,;;
1850179157,42.0623138,21.4509718,post_office,,ПТТ Радишани,,,,,,,,,,,,,,,,,,,,;;
1850179192,42.0565128,21.4513339,car_wash,,,,,,,,,,,,,,,,,,,,,,;;
1850351707,42.0527787,21.4502851,fuel,,Евро Оил,,,,,,,,,,,,,,,,,,,,;;
1850422160,42.0549098,21.4512288,fuel,,Окта,,,,,,,,,,,,,,,,,,,,;;
1850422186,42.0523407,21.4506950,restaurant,,,,,,,,,,,,,,,,,,,,,,;;
1850489869,42.0578588,21.4514149,restaurant,,Ресторан „Александар“,,,,,,,,,,,,,,,,,,,,;;
1850511008,42.0582551,21.4484000,cafe,,Royal,,,,,,,,,,,,,,,,,,,,;;
1850511011,42.0601589,21.4501059,hospital,,Манолеви,,,,,,,,,,,,,,,,,,,,;;
1850511013,42.0601350,21.4502266,cafe,,Шема,,,,,,,,,,,,,,,,,,,,;;
1850521527,42.0537503,21.4523161,restaurant,,Дарвик,,,,,,,,,,,,,,,,,,,,;;
1850562883,42.0550347,21.4554709,place_of_worship,,с.в Наум Охридски,,,,,,,,,,,,,,,,,,,,;;
1851476126,41.9915282,21.4504664,cafe,,Red Caffe,,,,,,,,,,,,,,,,,,,,;;
1851476148,41.9941727,21.4425119,bank,,Централен Регистер на РМ,,,,,,,,,,,,,,,,,,,,;;
1855631088,41.9857725,21.4312278,place_of_worship,,Света Петка,,,,,,,,,,,,,,,,,,,,;;
1855982570,42.0161642,21.4403511,pharmacy,,Еурофарм,,,,Ќемал Сејфула,,,,,,,,,,,,,,,,;;
1857418133,42.0145175,21.4589976,parking,,,,,,,,,,,,,,,,,,,,,,;;
1857472128,42.0101421,21.4610369,dentist,,PZU Prodentika,,,,,,,,,,,,,,,,,,,+38970498771,;;
1857486031,42.0114096,21.4594276,parking,,,,,,,,,,,,,,,,,,,,,,;;
1857486042,42.0024607,21.4647866,taxi,,,,,,,,,,,,,,,,,,,,,,;;
1857486046,41.9984862,21.4447291,car_wash,,,,,,,,,,,,,,,,,,,,,,;;
1857486050,42.0115371,21.4592774,taxi,,,,,,,,,,,,,,,,,,,,,,;;
1857486052,42.0019716,21.4647397,restaurant,,Тица - Елени,Tica-Eleni,,,,,,,,,,,,,,,,,,,;;
1857486059,42.0021140,21.4649636,parking,,,,,,,,,,,,,,,,,,,,,,;;
1858969938,41.9975241,21.4295352,bar,,LA MER - Coffe & Wine bar,,,Cкoпje,Васил Иљоски,20,1000,,,,,,Su-Th 08:00-24:00; Fr-Sa 09:00-01:00;,,,,,,,,
1860123667,42.0019424,21.4650824,restaurant,,,,,,,,,,,,,,,,,,,,,,;;
1860283426,42.0023764,21.4631477,parking,,,,,,,,,,,,,,,,,,,,,,;;
1860283429,42.0029983,21.4641508,bank,Stopanska Banka,Стопанска банка,Stopanska banka,,,,,,,,,,,,Стопанска банка АД - Скопје,,,,,,,;;
1860306307,42.0026511,21.4667140,post_office,,Пошта Автокоманда,,,,,,1000,,,,,,,,,,,,,,;;
1860365651,42.0019375,21.4648061,bureau_de_change,,,,,,,,,,,,,,,,,,,,,,;;
1860365710,42.0026068,21.4644629,cafe,,Аристократ кафе,Aristokrat cafe,,,,,,,,,,,,,,,,,,,;;
1860564315,42.0070342,21.4870906,parking,,,,,,,,,,,,,,,,,,,,,,;;
1860583329,41.9980638,21.4294059,parking,,,,,,,,,,,,,,,,,,,,,,;;
1864402613,42.0604971,21.2958493,place_of_worship,,Св. Илија,,,,,,,,,,,,,,,,,,,,;;
1866061400,41.9920113,21.4272588,parking_entrance,,,,,,,,,,,,,,,,,,,,,,;;
1866061405,41.9921452,21.4264486,parking_entrance,,,,,,,,,,,,,,,,,,,,,,;;
1866179709,41.9930256,21.4302496,fast_food,,Pizza FRESKO,,,Скопје,Македонија,12,1000,,,,,,,,,,,,,+389 70 567295,http://www.facebook.com/Picerijafresko;;
1867176020,41.9957062,21.4304595,restaurant,Trend,Тренд,Trend,,,,,,,,,,,,,,,,,,,;;
1867248510,41.9973091,21.4351329,university,,Факултет за музичка уметност,,,,,,,,,,,,,,,,,,,,;;
1868812117,41.9987513,21.4204158,restaurant,,Дестан,,,Cкoпje,Владимир Полежановски,,1000,,,,,,Mo-Su 09:00-23:00,,,,,,,+38923127324,https://destan.mk/pocetna/;;
1868812169,42.0034064,21.3995909,restaurant,,Ана Кристи,,,,,,,,,,,,,,,,,,,,;;
1868933572,42.0017742,21.3992299,restaurant,,Фотка,,,,,,,,,,,,,,,,,,,,;;
1870054369,41.9936252,21.4275081,fast_food,,Гиро,,,,,,,,,,,,,,,,,,,,;;
1876583691,41.9897212,21.4768613,cafe,,Кафе Писта,,,,,,,,,,,,,,,,,,,,;;
1876584011,41.9894222,21.4758817,cafe,,Кафе Мамбо,,,,,,,,,,,,,,,,,,,,;;
1902620381,41.9945773,21.4312276,theatre,,Театар за деца и младинци,,,,Димитрија Чуповски,4,,,,,,,,Children and Youth Theatre,,,,,,,;;
1902683992,41.9932496,21.4354132,theatre,Salon 19 19,Салон 19 19,,,,,,,,,,,,,,,,,,,,;;
1902683993,42.0044498,21.4386535,theatre,,Албански Театар,,,,,,,,,,,,,,,,,,,,;;
1935491365,41.9951834,21.4352156,pub,Carpe Diem,Карпе дием,Carpe Diem,MK,Cкoпje,Кеј 13 Ноември,,1000,,,,,,,,,,,,,,;;
1985948203,41.9922245,21.4165220,restaurant,,Balila,,,,,,,,,,,,,,,,,,,,;;
1999633538,41.9913688,21.4280088,restaurant,,Бифиња - Рамстор,Food Court Ramstore,,,,,,,,,,,,,,,,,,,;;
2004962771,42.0015351,21.4059587,fast_food,,Вили,,,,,,,,,,,,,,,,,,,,;;
2004962782,42.0078094,21.3934463,car_wash,,,,,,,,,,,,,,,,,,,,,,;;
2004975256,41.9851089,21.4659543,cafe,,,,,,,,,,,,,,,,,,,,,,;;
2006313200,42.0175452,21.5317427,fuel,,,,,,,,,,,,,,,,,,,,,,;;
2054895230,41.9950653,21.4324491,cafe,,Up Cafe,,,,,,,,,,,,Mo-Sa 08:00-18:00,,,,,,,,;;
2105387352,42.0001581,21.4252581,restaurant,Brukilnski,Бруклински,Bruklinski,MK,Скопје,Орце Николов,75,,,,,,,,,,,,,,+389 2 6091844,;;
2159535851,41.9953199,21.4347685,restaurant,,Бела виста,Bella Vista,MK,Cкoпje,Кеј 13 Ноември,2/4,1000,,,,,,10:00-24:00  Fr-Sa 10:00-01:00,,,,,,,,www.bellavistaskopje.mk;;
2174953997,41.9975122,21.4837593,atm,,,,,,,,,,,,,,,,,,,,,,;;
2198025092,41.9868390,21.4730837,drinking_water,,,,,,,,,,,,,,,,,,,,,,;;
2198026236,41.9882027,21.4730033,drinking_water,,,,,,,,,,,,,,,,,,,,,,;;
2248140977,41.9765627,21.4433824,fuel,Makpetrol,Макпетрол,Makpetrol,MK,Cкoпje,,,1000,Макпетрол,yes,yes,yes,yes,24/7,Makpetrol,yes,yes,yes,yes,yes,,http://makpetrol.mk;;
2248576388,41.9439857,21.4976245,fuel,Lukoil,Лукоил,Lukoil,,,Борис Трајковски,129,,,,,,,,,,,,,,,;;
2250281755,42.0297687,21.4444186,fuel,Makpetrol,Макпетрол,Makpetrol,,,,,,,,,,,,,,,,,,,;;
2250281764,41.9362492,21.5130861,fuel,Makpetrol,Макпетрол,Makpetrol,,,,,,,,,,,,,,,,,,,;;
2250439669,42.0328615,21.4018514,fuel,Makpetrol,Макпетрол,Makpetrol,,,,,,,,,,,,,,,,,,,;;
2258180465,41.9689531,21.5702815,fuel,Makpetrol,Макпетрол,Makpetrol,,,,,,,,,,,,,,,,,,,;;
2258180483,41.9957700,21.5499665,fuel,Makpetrol,Макпетрол,Makpetrol,,,,,,,,,,,,,,,,,,,;;
2276498829,41.9959130,21.4093297,cafe,,,,,,,,,,,,,,,,,,,,,,;;
2276499906,41.9947725,21.4100251,bank,Komercijalna Banka,Комерцијална Банка,Komercijalna Banka,,,,,,,,,,,,Комерцијална Банка АД Скопје,,,,,,,;;
2294320035,41.9960357,21.4078311,pharmacy,,Зегин,,,,,,,,,,,,,,,,,,,,;;
2294320125,41.9931670,21.4080594,restaurant,,Два Елена,Dva Elena,,,,,,,,,,,,,,,,,,,;;
2298054794,42.0071574,21.3722969,cafe,,Badu,,,,,,,,,,,,,,,,,,,,;;
2322886873,41.9952825,21.4302915,restaurant,Arabeska,Арабеска,Arabesque,,,,,,,,,,,,,,,,,,,;;
2324290153,42.0033910,21.3323916,restaurant,Oreov Lad,Ореов Лад,Oreov Lad,,,,,,,,,,,,,,,,,,,;;
2324290157,42.0034288,21.3319678,parking,,,,,,,,,,,,,,,,,,,,,,;;
2324290159,42.0029006,21.3316782,parking,,,,,,,,,,,,,,,,,,,,,,;;
2333163643,41.9502955,21.2993843,restaurant,,Кањон Матка,,,,,,,,,,,,,,,,,,,,;;
2334423406,41.9610975,21.2961533,restaurant,,Манастирска пештера,,,,,,,,,,,,,,,,,,,,;;
2335276894,42.0064278,21.3576640,bank,Šparkase,Шпаркасе,Sparkasse,,,,,1000,,,,,,Mo-Fr 08:30-16:30,,,,,,,+389 2 2050514,https://sparkasse.mk;;
2335276905,42.0065755,21.3596919,bank,,Sparkasse,,,,Мице Козар,1,1000,,,,,,Mo-Fr 08:30-16:30,,,,,,,+389 02 2050260,http://www.ob.com.mk;;
2335276909,41.9937422,21.4176190,atm,Šparkase,Шпаркасе,Sparkasse,MK,Cкoпje,,,1000,,,,,,,Шпаркасе Банка Македонија АД Скопје,,,,,,,;;
2335276914,42.0064284,21.3577339,atm,Šparkase,Шпаркасе,Sparkasse,,,,,,,,,,,,,,,,,,,;;
2335304828,41.9818419,21.4400132,bank,Šparkase,Шпаркасе,Sparkasse,MK,Cкoпje,,,1000,,,,,,,Шпаркасе Банка Македонија АД Скопје,,,,,,,;;
2335304829,42.0136404,21.4452888,atm,Šparkasse,Шпаркасе,Sparkasse,MK,Cкoпje,Булевар Цветан Димов,,1000,,,,,,,Шпаркасе Банка Македонија АД Скопје,,,,,,,;;
2335304834,42.0136832,21.4452794,bank,Šparkase,Шпаркасе,Sparkasse,MK,Cкoпje,Булевар Цветан Димов,,1000,,,,,,,Шпаркасе Банка Македонија АД Скопје,,,,,,,;;
2362912161,42.0026568,21.4053418,pharmacy,,Аптека Ремедиум Лек,,,,,,,,,,,,Mo-Fr 07:30-21:00; Su off; Sa 08:00-16:00,,,,,,,,
2364323843,41.9996873,21.4940443,kindergarten,,,,,,,,,,,,,,,,,,,,,,;;
2365723919,41.9967666,21.4998637,bank,,Комерцијална Банка,,,,,,,,,,,,,,,,,,,,;;
2365738469,41.9993465,21.4932407,pharmacy,,,,,,,,,,,,,,,,,,,,,,;;
2374191655,41.9991447,21.4903951,car_wash,,,,,,,,,,,,,,,,,,,,,,;;
2374211850,41.9980584,21.4942334,marketplace,,,,,,,,,,,,,,,,,,,,,,;;
2389661329,42.0096173,21.3188246,place_of_worship,,,,,,,,,,,,,,,,,,,,,,;;
2410445420,41.9398843,21.5134781,dentist,Dr.Saltamarski,ПЗУ Д-р Салтамарски,Saltamarski,,Skopje,Иван Хаџиниколов,D-r Saltamarski,1000,,,,,,Mo-Fr 08:00-20:00; Sa-Su by appoinment,,,,,,,+38971385416,;
2411329687,42.0131608,21.4117168,restaurant,,Фиш,,,,,,,,,,,,,,,,,,,,;;
2426726558,41.9588888,21.5666704,parking,,,,,,,,,,,,,,,,,,,,,,;;
2459790960,41.9384565,21.5183709,drinking_water,,,,,,,,,,,,,,,,,,,,,,;;
2459791299,41.9391010,21.5153696,drinking_water,,,,,,,,,,,,,,,,,,,,,,;;
2459791378,41.9397195,21.5132989,drinking_water,,,,,,,,,,,,,,,,,,,,,,;;
2459794200,41.9387359,21.5157531,marketplace,,Pazar Dracevo,,,,,,,,,,,,,,,,,,,,;;
2459795783,41.9397754,21.5127868,library,,,,,,,,,,,,,,,,,,,,,,;;
2472154321,41.9968185,21.4343486,library,,Државен архив на Северна Македонија,State Archives of North Macedonia,,,,,,,,,,,,,,,,,,,;;
2472332550,41.9855468,21.4330638,fast_food,,Go Get Burger,,,,,,,,,,,,,,,,,,,,;;
2520984629,41.9976152,21.4263503,atm,Stopanska Banka,Стопанска Банка,Stopanska Banka,,,,,,,,,,,,Стопанска Банка АД - Скопје,,,,,,,;;
2539581007,41.9734649,21.4462340,cafe,,Quatro Caffe,,,,,,,,,,,,,,,,,,,,;;
2539581507,41.9732771,21.4456656,cafe,,Bass Cafe,,,,,,,,,,,,,,,,,,,,;;
2552743864,42.0148902,21.5142074,place_of_worship,,Xhamija e Deshmoreve Hasanbeg,,,,,,,,,,,,,,,,,,,,;;
2578824879,41.9811356,21.4324038,pharmacy,,Аптека Виола,,,,,,,,,,,,,,,,,,,,;;
2580192144,41.9650429,21.4727082,restaurant,Gradina,Градина,Gradina,,,,,,,,,,,,,,,,,,,;;
2593810074,41.9948356,21.4119706,taxi,Taksi Sonce,Такси Сонце,Taxi Sonce,,,,,,,,,,,,,,,,,,,;;
2601311980,42.0032478,21.4078707,pharmacy,,Betty,,,,,,,,,,,,,,,,,,,,;;
2614080211,41.9966620,21.4090160,post_office,Makedonska Pošta,Македонска Пошта,Macedonian Post,MK,Скопје,,,1000,,,,,,,Македонска Пошта,,,,,,,http://www.posta.mk;;
2695392360,41.9954474,21.4343506,pub,,Casa Cubana,,MK,Скопје,Кеј 13 Ноември,28,1000,,,,,,10:00-24:00  Fr-Sa 10:00-01:00,Casa Cubana,,,,,,,;;
2695392370,41.9951965,21.4322415,nightclub,,Сектор909,Sektor909,,Cкoпje,11 Октомври,3a,1000,,,,,,,,,,,,,,;;
2814545377,41.9955477,21.4308204,cafe,Bokata,Bocata,,,,Никола Вапцаров,1,,,,,,,Mo-Su 08:00-23:00,,,,,,,,;;
2814545378,41.9949424,21.4308588,cafe,,Coffee Factory 2,,,Скопје,Македонија,,1000,,,,,,Mo-Sa 08:00-01:00,,,,,,,,;;
2818872887,42.0051241,21.4145137,restaurant,Sokače,Сокаче,Sokache,,Cкoпje,Драган Ѓаконовски Шпато,,1000,,,,,,08:00 - 00:00,,,,,,,,;;
2823030395,41.9958947,21.4323787,nightclub,,XO Club,,,,Плоштад Македонија,,,,,,,,,,,,,,,,;;
2823030396,41.9955386,21.4340509,bar,,Етно-бар,Etno Bar,MK,Cкoпje,Кеј 13 Ноември,,1000,,,,,,,Etno Bar,,,,,,,;;
2823030397,41.9946394,21.4353890,nightclub,Privilege Cliub,Клуб „Привилиџ“,,,,ГТЦ,,,,,,,,,,,,,,,,;;
2850243726,41.9951381,21.4353642,nightclub,Iridium 77,Иридиум 77,,MK,Cкoпje,Кеј 13 Ноември,,1000,,,,,,,,,,,,,,;;
2858315264,42.0035281,21.4167758,fast_food,,DM Restaurant,,,Скопје,Орце Николов,,,,,,,,10:00-00:00,,,,,,,,;;
2882119233,41.9799593,21.4755669,bar,,Игротека Be Happy,,,,,,,,,,,,,,,,,,,,;;
2882119234,41.9804570,21.4723253,bank,,Комерцијална Банка,,,,,,,,,,,,,,,,,,,,;;
2882653091,41.9834046,21.4868617,bar,,Игротека Вини Пу,Grafikaprint,,,Тодор Чангов 41,43,1000,,,,,,Mo-Fr 09:00-18:00,,,,,,,,http://www.grafikaprint.mm;;
2882653092,41.9815558,21.4762981,bar,,Игротека Чекорче,,,,,,,,,,,,,,,,,,,,;;
2882653097,41.9901685,21.4542682,bar,,Игротека Тиквичка,,,,,,,,,,,,,,,,,,,,;;
2882653098,41.9754573,21.4440848,bar,,Игротека Смајли,,,,,,,,,,,,,,,,,,,,;;
2882663803,41.9706270,21.4695376,post_office,,Глобко Логистик,,,,,,,,,,,,,,,,,,,,;;
2882663804,41.9713075,21.4681179,post_office,,DHL,,,,,,,,,,,,,,,,,,,,;;
2883877847,41.9881751,21.4749784,drinking_water,,,,,,,,,,,,,,,,,,,,,,;;
2883877848,41.9860638,21.4798601,drinking_water,,,,,,,,,,,,,,,,,,,,,,;;
2883877849,41.9832426,21.4813353,drinking_water,,,,,,,,,,,,,,,,,,,,,,;;
2883877850,41.9821779,21.4801551,drinking_water,,,,,,,,,,,,,,,,,,,,,,;;
2883877851,41.9793307,21.4742918,drinking_water,,,,,,,,,,,,,,,,,,,,,,;;
2883877894,41.9885844,21.4534598,cafe,,Палма,,,,,,,,,,,,,,,,,,,,;;
2883877896,41.9914536,21.4522729,restaurant,,Every Day,,,,,,,,,,,,,,,,,,,,;;
2884502146,41.9795259,21.4792732,car_wash,,Перални,,,,,,,,,,,,,,,,,,,,;;
2884502160,41.9810724,21.4752946,bank,,Стопанска Банка,,,,,,,,,,,,,,,,,,,,;;
2884502161,41.9811869,21.4752453,atm,,Стопанска Банка,,,,,,,,,,,,,,,,,,,,;;
2884502162,41.9828430,21.4724684,bank,,Централна Кооперативна Банка,,,,,,,,,,,,,,,,,,,,;;
2884502163,41.9741156,21.4724627,bank,,Комерцијална Банка,,,,,,,,,,,,,,,,,,,,;;
2884502164,41.9847822,21.4681788,bank,,Прокредит Банка,,,,,,,,,,,,,,,,,,,,;;
2884502165,41.9862724,21.4637512,bank,,ТТК Банка,,,,,,,,,,,,,,,,,,,,;;
2884502166,41.9867167,21.4629871,bank,,Стопанска Банка,,,,,,,,,,,,,,,,,,,,;;
2884502167,41.9894468,21.4600367,bank,,NLB Тутунска Банка,,,,,,,,,,,,,,,,,,,,;;
2884502183,41.9892067,21.4502163,bank,,Komercijalna Banka,,,,,,,,,,,,,,,,,,,,;;
2884502184,41.9861457,21.4669741,atm,,,,,,,,,,,,,,,Halkbank,,,,,,,;;
2884502200,41.9852484,21.4718403,place_of_worship,,,,,,,,,,,,,,,,,,,,,,;;
2884502203,41.9832841,21.4764262,place_of_worship,,,,,,,,,,,,,,,,,,,,,,;;
2884502204,41.9853763,21.4754451,place_of_worship,,Црква „Рождество на Пресвета Богородица“ - Ново Лисиче,,,,,,,,,,,,,,,,,,,,;;
2884502205,41.9783403,21.4961010,place_of_worship,,Црква „Св. Великомаченик Георгиј“,,,,Ѓорѓи Капчев,,,,,,,,,,,,,,,,;;
2884502206,41.9790185,21.4862946,veterinary,,Ветеринарна Болница,,,,,,,,,,,,,,,,,,,,;;
2886274890,41.9846465,21.4390666,bank,,NLB Тутунска Банка,,,,,,,,,,,,,,,,,,,,;;
2887575436,41.9644772,21.4936632,place_of_worship,,Црква „Св. Апостоли Петар и Павле“,Saints Peter and Paul the Apostles Church,,Скопје,Горно Лисиче,,1000,,,,,,,,,,,,,,;;
2887575838,41.9870236,21.4624841,bank,,Охридска Банка,,,,,,,,,,,,,,,,,,,,;;
2887575851,41.9846972,21.4767981,drinking_water,,,,,,,,,,,,,,,,,,,,,,;;
2887575852,41.9807959,21.4774570,drinking_water,,,,,,,,,,,,,,,,,,,,,,;;
2887575853,41.9827451,21.4720860,drinking_water,,,,,,,,,,,,,,,,,,,,,,;;
2887575854,41.9840950,21.4709520,drinking_water,,,,,,,,,,,,,,,,,,,,,,;;
2887575855,41.9882627,21.4630555,drinking_water,,Чешмичка,,,,,,,,,,,,,,,,,,,,;;
2887575856,41.9904509,21.4605154,drinking_water,,,,,,,,,,,,,,,,,,,,,,;;
2887575857,41.9911648,21.4492638,drinking_water,,,,,,,,,,,,,,,,,,,,,,;;
2887575858,41.9893772,21.4635675,fast_food,,Лесковачка Вили,,,,,,,,,,,,,,,,,,,,;;
2980043658,41.9908011,21.4447857,atm,,,,,,,,,,,,,,,,,,,,,,;;
2992591829,42.0017629,21.4370632,cafe,,Mon Frere,,MK,Cкoпje,,,1000,,,,,,Mo-Su 08:00-23:00,,,,,,,,;;
3003497925,41.9969234,21.4383163,bureau_de_change,,exchange,,,,,,,,,,,,,,,,,,,,;;
3020876346,42.0597023,21.3236858,restaurant,Staro Bure,Старо Буре,Staro Bure,,,,,,,,,,,,,,,,,,,;;
3026549093,42.0030413,21.4000421,atm,Stopanska Banka,Стопанска Банка,Stopanska Banka,,,,,,,,,,,,Стопанска Банка АД - Скопје,,,,,,,;;
3026549094,42.0028422,21.4011278,bank,Komercijalna Banka,Комерцијална Банка,Komercijalna Banka,,,,,,,,,,,,Комерцијална Банка АД Скопје,,,,,,,;;
3058866268,41.9756691,21.4548094,post_office,Makedonska Pošta,Македонска Пошта,Macedonian Post,MK,Скопје,Ефтим Спростанов,бб,1000,,,,,,,Македонска Пошта,,,,,,,http://www.posta.mk;;
3099334941,41.9910923,21.4460324,pharmacy,,Zegin,,,,,,,,,,,,,,,,,,,,;;
3099334942,41.9909328,21.4455925,atm,,Halkbank,,,,,,,,,,,,,,,,,,,,;;
3101725359,41.9989126,21.4351740,atm,,,,,,,,,,,,,,,Шпаркасе,,,,,,,;;
3101725378,41.9993417,21.4357789,atm,,ProCredit,,,,,,,,,,,,,,,,,,,,;;
3101725379,41.9992410,21.4368849,cafe,,Old Town,,,,,,,,,,,,Mo-Su 10:00-22:00,,,,,,,,;;
3101725380,41.9992826,21.4380769,taxi,,,,,,,,,,,,,,,,,,,,,,;;
3101725381,41.9940162,21.4423152,bank,,Stopanska Banka,,,,,,,,,,,,,,,,,,,,;;
3101725382,41.9937271,21.4425083,atm,,Уни,Uni,,,,,,,,,,,,,,,,,,,;;
3101726037,42.0000003,21.4358699,cafe,,Nargile Cafe,,,,,,,,,,,,Mo-Su 10:00-22:00,,,,,,,,;;
3101726038,42.0005355,21.4355238,drinking_water,,,,,,,,,,,,,,,,,,,,,,;;
3101726039,41.9998288,21.4358296,bar,,Rakija Bar,,,,,,,,,,,,,,,,,,,,;;
3101726040,42.0000179,21.4366005,restaurant,,Пивница АН,Beerhouse AN,MK,Cкoпje,Градиште,14,1000,,,,,,Mo-Sa 09:00-24:00; Su 12:00-24:00,,yes,,yes,yes,yes,+389 02 321 2111,http://pivnicaan.mk/;
3103985004,41.9958677,21.4330712,cafe,,Telekom Trend Lounge Bar,,MK,Cкoпje,Кеј 13 Ноември,,1000,,,,,,Mo-Su 08:00-24:00,,,,,,,,;;
3103985010,41.9953834,21.4345612,atm,,NLB Tutunska banka,,MK,Cкoпje,Кеј 13 Ноември,,1000,,,,,,,,,,,,,,;;
3104012020,41.9943079,21.4311375,pharmacy,,Eуpoфapм,Eurofarm,,,,,,,,,,,,,,,,,,,;;
3175764807,42.0594793,21.5096450,place_of_worship,,Manastir Svetka Petka,,,cresevo,,,,,,,,,,,,,,,,,;;
3208478528,41.9953667,21.4031136,parking,,,,,,,,,,,,,,,,,,,,,,;;
3304511872,41.9857707,21.4631171,fountain,,,,,,,,,,,,,,,,,,,,,,;;
3304519276,41.9892217,21.4634495,fast_food,,Лесковац,,,Skopje,Булевар Јане Сандански,,1000,,,,,,,,,,,,,,;;
3341289752,41.9944452,21.4306195,cafe,,Bistro Skopje,,,Скопје,Македонија,41,1000,,,,,,Mo-Su 09:00-21:00,,,,,,,,;;
3341289753,41.9938562,21.4303650,cafe,,Gnezdo,,,Скопје,Македонија,,1000,,,,,,Mo-Su 08:00-22:00,,,,,,,,;;
3341289786,41.9929701,21.4302256,cafe,,Caffe Novo,,,Скопје,Македонија,,1000,,,,,,Mo-Su 09:00-22:00,,,,,,,,;;
3341289787,41.9928192,21.4299102,bank,Komercijalna Banka,Комерцијална Банка,Komercijalna Bank,,Скопје,Македонија,,1000,,,,,,,,,,,,,,;;
3341289788,41.9927362,21.4298707,cafe,,Caffe Bar Dolce Vita,,,Скопје,Македонија,,1000,,,,,,Mo-Su 09:00-21:00,,,,,,,,;;
3341289789,41.9925716,21.4297981,restaurant,,Damaskino,,,Скопје,Македонија,,1000,,,,,,,,,,,,,,;;
3341289790,41.9923772,21.4293734,cafe,,Corsso,,,Скопје,Даме Груев,,1000,,,,,,24/7,,,,,,,,;;
3415004757,42.0618189,21.4510186,restaurant,,,,,,,,,,,,,,,,,,,,,,;;
3427388702,41.9964357,21.4147832,pub,,Дринкерс Парадајз,Drinkers Paradise,,,Христо Смирненски,,,,,,,,Mo-Su 00:00-01:00 10:00-24:00,,,,,,,,;;
3427391618,41.9989335,21.4204573,pub,,Браво,Bravo,,,,,,,,,,,,,,,,,,,;;
3428973293,41.9919840,21.4463760,post_office,Makedonska Pošta,Македонска Пошта,Macedonian Post,MK,Скопје,,,1000,,,,,,,Македонска Пошта,,,,,,,http://www.posta.mk;;
3428975493,41.9941370,21.4385960,taxi,Taxi Stand,Такси-постојка,,,,,,,,,,,,,,,,,,,,;;
3437249685,41.9953942,21.4310330,atm,,,,,,,,,,,,,,,,,,,,,,;;
3484100383,41.9914096,21.4223968,fast_food,,,,,,,,,,,,,,,,,,,,,,;;
3484100384,41.9917018,21.4231542,restaurant,,Dal Fufo - Galija,,,Скопје,,,,,,,,,,,,,,,,,;;
3484101195,41.9906511,21.4207515,fast_food,,MFC - Macedonian Fried Chicken,,,,,,,,,,,,,,,,,,,,;;
3492961224,42.0049430,21.3924412,cinema,,Cineplexx,,MK,Cкoпje,Манапо,,1000,,,,,,10:00-00:00; Fr-Sa 10:00-01:00,,,,,,,+389 2 307 4477,https://www.cineplexx.mk/;
3494568033,42.0092490,21.3944391,drinking_water,,,,,,,,,,,,,,,,,,,,,,;;
3494569600,42.0026007,21.4286168,drinking_water,,,,,,,,,,,,,,,,,,,,,,;;
3494577049,42.0048773,21.3912646,fast_food,,Burger King,,MK,Cкoпje,Љубљанска,,1000,Burger King,,,,,,,,,,,,,;;
3497083541,42.0114641,21.4073405,drinking_water,,,,,,,,,,,,,,,,,,,,,,;;
3497498228,42.0139201,21.4062413,atm,,,Unibank,,,,,,УНИБанка,,,,,24/7,УНИБанка,,,,,,,;;
3497498229,42.0139259,21.4061361,atm,Komercijalna Banka,Комерцијална Банка,Komercijalna Banka,,,,,,Комерцијална банка,,,,,24/7,Комерцијална Банка АД Скопје,,,,,,,;;
3503652921,41.9957004,21.3973638,post_office,Makedonska Pošta,Македонска пошта,Macedonian Post,MK,Скопје,,,1000,,,,,,Mo-Fr 09:00-11:00 11:30-17:00,Македонска Пошта,,,,,,,http://www.posta.mk;;
3503985936,41.9530277,21.2967637,parking,,,,,,,,,,,,,,,,,,,,,,;;
3505013893,41.9947506,21.4319604,restaurant,,Destan,,MK,Скопје,11 Октомври,,1000,,,,,,08:00-23:00,,,,,,,,;;
3505013993,41.9950911,21.4317257,restaurant,La Terrazza,Ла Тераца,,MK,Скопје,11 Октомври,2,1000,,,,,,08:00-24:00  Fr-Sa 08:00-01:00,,,,,,,+389 2 3113380,;;
3506695093,42.0045421,21.3910004,restaurant,,Brooklyn Lounge Bar,,,,,,,,,,,,08:00-00:00; Fr-Sa 08:00-01:00,,,,,,,,;
3506695494,42.0057442,21.3928791,parking_entrance,,,,,,,,,,,,,,,,,,,,,,;;
3506696093,42.0043361,21.3906406,cafe,,Trend Food Bar,Trend Food Bar,,,,,,,,,,,08:00-00:00; Fr-Sa 08:00-01:00,,,,,,,+389 70 306 425,http://www.caffetrend.mk/;
3508366301,42.0039785,21.3923809,bicycle_parking,,,,,,,,,,,,,,,,,,,,,,;;
3536179577,41.9953743,21.4099065,restaurant,,Носталгија,Nostalgija,,,Митрополит Теодосиј Гологанов,,1000,,,,,,,,,,,,,+38923060708,;;
3603174043,42.0039263,21.3871902,ice_cream,,Палма,Palma,,Скопје,Булевар Партизански Одреди,121,1000,,,,,,Fr Sa 08:00-13:00; Mo-Th 08:00-24:00,Палма,,,,,,,;
3606658843,42.0050186,21.3834081,pharmacy,,Зегин (Карпош 4),,,Скопје,Булевар Партизански Одреди,,1000,,,,,,,,,,,,,,;;
3614879079,41.9999239,21.4362676,clock,,Watchmaker OMEGA 1963,,,Cкoпje,Салих Асим,23,1000,,,,,,,,,,,,,,;;
3623547525,41.9952491,21.4238539,fast_food,,Burger Friends,,MK,Cкoпje,Митрополит Теодосиј Гологанов,28,1000,,,,,,,,,,,,,,http://www.burgerfriends.mk/;;
3623629276,41.9999773,21.4433939,bicycle_parking,,,,,,,,,,,,,,,,,,,,,,;;
3623629277,42.0046305,21.4080375,bicycle_parking,,,,,,,,,,,,,,,,,,,,,,;;
3623629278,42.0045926,21.4083567,bicycle_parking,,,,,,,,,,,,,,,,,,,,,,;;
3623629279,42.0041431,21.3926131,motorcycle_parking,,,,,,,,,,,,,,,,,,,,,,;;
3623629280,41.9950860,21.4331323,bicycle_parking,,,,,,,,,,,,,,,,,,,,,,;;
3623629281,41.9943078,21.4346433,bicycle_parking,,,,,,,,,,,,,,,,,,,,,,;;
3623629282,41.9952845,21.4344618,bicycle_parking,,,,,,,,,,,,,,,,,,,,,,;;
3623629283,41.9934343,21.4417476,bicycle_parking,,,,,,,,,,,,,,,,,,,,,,;;
3633126812,41.9944722,21.3959313,atm,Stopanska Banka,Стопанска Банка,Stopanska Banka,,,,,,,,,,,24/7,Стопанска Банка АД - Скопје,,,,,,,;;
3633126813,41.9967060,21.4050875,atm,Stopanska Banka,Стопанска Банка,Stopanska Banka,,,,,,,,,,,24/7,Стопанска Банка АД - Скопје,,,,,,,;;
3634181793,42.0001613,21.3906354,bench,,,,,,,,,,,,,,,,,,,,,,;;
3634181893,42.0001750,21.3906783,bench,,,,,,,,,,,,,,,,,,,,,,;;
3634181993,42.0002007,21.3907048,bench,,,,,,,,,,,,,,,,,,,,,,;;
3634182093,42.0002022,21.3905804,bench,,,,,,,,,,,,,,,,,,,,,,;;
3634182094,42.0002386,21.3906008,bench,,,,,,,,,,,,,,,,,,,,,,;;
3634182103,42.0009171,21.3902099,pharmacy,,ЕуроФарм Тафталиџе,Eurofarm Taftalidze,MK,Cкoпje,Лондонска,бб,1000,,,,,,Mo-Sa 08:00-22:00; Su 08:00-14:00,ЕУРО-ФАРМ,,,,,,+389 2 3079378,http://www.eurofarm.com.mk;
3634182193,42.0002447,21.3906579,bench,,,,,,,,,,,,,,,,,,,,,,;;
3634182298,42.0005737,21.3916984,atm,Komercijalna Banka,Комерцијална Банка,Komercijalna Banka,,,,,,,,,,,24/7,Комерцијална Банка АД Скопје,,,,,,,;;
3634182299,42.0010817,21.3900585,atm,Komercijalna Banka,Комерцијална Банка,Komercijalna Banka,,,,,,,,,,,,Комерцијална Банка АД Скопје,,,,,,,;;
3634182400,42.0010810,21.3900911,atm,NLB Tutunska Banka,НЛБ Тутунска Банка,NLB Tutunska Banka,,,,,,,,,,,,НЛБ - Тутунска Банка,,,,,,,;;
3635130200,42.0010181,21.3900584,atm,Stopanska Banka,Стопанска Банка,Stopanska Banka,,,,,,,,,,,,Стопанска Банка АД - Скопје,,,,,,,;;
3635145501,42.0016428,21.3911861,parking_entrance,,,,,,,,,,,,,,,,,,,,,,;;
3637351595,41.9944772,21.3959333,atm,NLB Tutunska Banka,НЛБ Тутунска Банка,NLB Tutunska Banka,,,,,,,,,,,,НЛБ - Тутунска Банка,,,,,,,;;
3648714484,42.0056059,21.4285673,bar,,Брик бар,BRICK Bar,,Cкoпje,ул.1732,бр.4,1000,,,,,,09:00-01:00,,,,,,,,;;
3648714485,42.0062651,21.4063144,restaurant,,Барбакан,Barbakan,,Cкoпje,Булевар 8-ми Септември,18,1000,,,,,,08:00-01:00,,,,,,,,;;
3650810040,42.0113394,21.4077428,bench,,,,,,,,,,,,,,,,,,,,,,;;
3650810041,42.0114667,21.4129541,bench,,,,,,,,,,,,,,,,,,,,,,;;
3650810439,42.0112434,21.4080463,bench,,,,,,,,,,,,,,,,,,,,,,;;
3650810440,42.0117969,21.4134522,bench,,,,,,,,,,,,,,,,,,,,,,;;
3650810632,42.0085511,21.4229473,drinking_water,,,,,,,,,,,,,,,,,,,,,,;;
3650810640,42.0097827,21.4215315,drinking_water,,,,,,,,,,,,,,,,,,,,,,;;
3650810641,42.0111334,21.4084020,bench,,,,,,,,,,,,,,,,,,,,,,;;
3650810642,42.0125219,21.4149667,bench,,,,,,,,,,,,,,,,,,,,,,;;
3650810643,42.0126481,21.4156288,bench,,,,,,,,,,,,,,,,,,,,,,;;
3650811236,42.0108097,21.4101648,bench,,,,,,,,,,,,,,,,,,,,,,;;
3650811237,42.0109553,21.4116502,bench,,,,,,,,,,,,,,,,,,,,,,;;
3650811238,42.0110233,21.4087534,bench,,,,,,,,,,,,,,,,,,,,,,;;
3650811239,42.0110622,21.4120045,bench,,,,,,,,,,,,,,,,,,,,,,;;
3650811240,42.0116221,21.4132097,bench,,,,,,,,,,,,,,,,,,,,,,;;
3650811241,42.0124118,21.4145833,bench,,,,,,,,,,,,,,,,,,,,,,;;
3650811242,42.0126654,21.4166293,drinking_water,,,,,,,,,,,,,,,,,,,,,,;;
3650851935,42.0108334,21.4098148,bench,,,,,,,,,,,,,,,,,,,,,,;;
3650851936,42.0108421,21.4109053,bench,,,,,,,,,,,,,,,,,,,,,,;;
3650851937,42.0108755,21.4094475,bench,,,,,,,,,,,,,,,,,,,,,,;;
3650851938,42.0109435,21.4090932,bench,,,,,,,,,,,,,,,,,,,,,,;;
3650852036,42.0108065,21.4105409,bench,,,,,,,,,,,,,,,,,,,,,,;;
3650852037,42.0108895,21.4112829,bench,,,,,,,,,,,,,,,,,,,,,,;;
3650852038,42.0114333,21.4074204,bench,,,,,,,,,,,,,,,,,,,,,,;;
3650852039,42.0119749,21.4136961,bench,,,,,,,,,,,,,,,,,,,,,,;;
3650852040,42.0125963,21.4153065,bench,,,,,,,,,,,,,,,,,,,,,,;;
3650852041,42.0126783,21.4159860,bench,,,,,,,,,,,,,,,,,,,,,,;;
3650852133,42.0123018,21.4142944,bench,,,,,,,,,,,,,,,,,,,,,,;;
3650902534,42.0112930,21.4126100,bench,,,,,,,,,,,,,,,,,,,,,,;;
3650903833,42.0111603,21.4123094,bench,,,,,,,,,,,,,,,,,,,,,,;;
3650903834,42.0121292,21.4139444,bench,,,,,,,,,,,,,,,,,,,,,,;;
3657126340,42.0255282,21.3798676,parking_entrance,,,,,,,,,,,,,,,,,,,,,,;;
3657126347,42.0256466,21.3800320,parking_entrance,,,,,,,,,,,,,,,,,,,,,,;;
3663767991,42.0038265,21.4150060,cafe,,The Gallery,,,Cкoпje,,,1000,,,,,,Mo-Th 07:30-24:00  Fr 07:30-01:00  Sa 08:00-01:00  Su 08:00-24:00,,,,,,,,;;
3663767992,42.0039722,21.4151255,cafe,,MonAmi,,,Cкoпje,,,1000,,,,,,,,,,,,,,;;
3663767994,42.0040547,21.4151730,cafe,,Жапон Кафе Бар,Zapon Coffee Bar,,Cкoпje,,,1000,,,,,,07:30 - 23:30,,,,,,,,;;
3663767995,42.0042809,21.4146731,cafe,,Cafe Bela,,,Cкoпje,,,1000,,,,,,09:00 - 00:00,,,,,,,,;;
3663791822,41.9811549,21.4755231,fast_food,,Royal Burger,,,Skopje,Булевар Видое Смилевски Бато,55,1000,,,,,,,,,,,,,,;;
3668592669,41.9769543,21.4084150,place_of_worship,,Црква „Рождество на Пресвета Богородица“,,,,,,,,,,,,,,,,,,,,;;
3673492606,41.9951423,21.4292834,atm,Šparkase,Шпаркасе,Sparkasse,MK,Cкoпje,Никола Вапцаров,18,1000,,,,,,,Шпаркасе Банка Македонија АД Скопје,,,,,,,;;
3673514709,41.9757707,21.4439760,atm,,Шпаркасе,Sparkasse,MK,Cкoпje,,,1000,,,,,,,Шпаркасе Банка Македонија АД Скопје,,,,,,,;;
3673575643,42.0045813,21.3925292,atm,,Шпаркасе,Sparkasse,,,,,,,,,,,,Шпаркасе Банка Македонија АД Скопје,,,,,,,;;
3674607001,41.9849643,21.4658037,atm,,Шпаркасе,Sparkasse,MK,Cкoпje,,,1000,,,,,,,Шпаркасе Банка Македонија АД Скопје,,,,,,,;;
3707090923,41.9972260,21.4170693,restaurant,,Еснаф кај даре,,,,,,,,,,,,,,,,,,,,;;
3712231696,41.9956859,21.4343838,drinking_water,,,,,,,,,,,,,,,,,,,,,,;;
3712238089,41.9952912,21.4357732,drinking_water,,,,,,,,,,,,,,,,,,,,,,;;
3712254160,42.0024656,21.4391711,drinking_water,,,,,,,,,,,,,,,,,,,,,,;;
3726458351,42.0017616,21.4369106,drinking_water,,,,,,,,,,,,,,,,,,,,,,;;
3750783154,42.0038662,21.3921091,cafe,,Play Cafe,,,,,,,,,,,,,,,,,,,,;;
3750783155,42.0049537,21.3919705,parking_entrance,,,,,,,,,,,,,,,,,,,,,,;;
3750783156,42.0050195,21.3919848,parking_entrance,,,,,,,,,,,,,,,,,,,,,,;;
3750783157,42.0050673,21.3908985,parking_entrance,,,,,,,,,,,,,,,,,,,,,,;;
3750783159,42.0051331,21.3909099,parking_entrance,,,,,,,,,,,,,,,,,,,,,,;;
3750790435,42.0081413,21.3916010,car_wash,,,,,,,,,,,,,,,,,,,,,,;;
3755532975,41.9994110,21.4127725,cafe,Koncept37,Концепт37,Concept37,,,,,,,,,,,,,,,,,,,;;
3787600182,41.9809376,21.4405306,bank,,Стопанска Банка,,,,,,,,,,,,,,,,,,,,;;
3787600183,41.9809158,21.4405696,atm,,,,,,,,,,,,,,,Stopanska Banka,,,,,,,;;
3787622358,41.9818480,21.4400507,atm,,,,,,,,,,,,,,,Sparkasse,,,,,,,;;
3789130262,41.9482661,21.4941204,fuel,,РТ Петрол,RT Petrol,,,,,,,,,,,,,,,,,,,;;
3796283357,41.9816051,21.4908155,bus_station,,Последна 17ка,,,,,,,,,,,,,jsp.com.mk,,,,,,,;;
3804952223,41.9918127,21.4928064,fuel,,Мотоцентар,,,,,,,,,,,,,,,,,,,,;;
3804952226,41.9900511,21.4963956,fuel,,АП Петрол,AP Petrol,,,,,,,,,,,,,,,,,,,;;
3812500134,41.9979568,21.4240507,nightclub,,Balet,,,,Булевар Партизански Одреди,,,,,,,,23:00-05:00,,,,,,,,;;
3816919262,42.0254423,21.3761209,drinking_water,,,,,,,,,,,,,,,,,,,,,,;;
3816919343,42.0256469,21.3767990,pharmacy,,Eurofarm,,,,,,,,,,,,,,,,,,,,;;
3830375935,41.9820014,21.4735236,pharmacy,,ZEGIN,,,,,,,,,,,,,,,,,,,,;;
3830410317,41.9823463,21.4738911,pharmacy,,,,,,,,,,,,,,,,,,,,,,;;
3830421658,41.9832734,21.4728692,drinking_water,,,,,,,,,,,,,,,,,,,,,,;;
3830455731,41.9823413,21.4726680,bureau_de_change,,Менувачница,,,,,,,,,,,,,,,,,,,,;;
3830455732,41.9824716,21.4725098,restaurant,,Pizza Amica,,,,,,,,,,,,,,,,,,,,;;
3832362529,41.9899658,21.4198380,pharmacy,,Виола,,,,,,,,,,,,,,,,,,,,;;
3832366896,41.9898733,21.4197501,fast_food,,,,,,,,,,,,,,,,,,,,,,;;
3832366897,41.9898526,21.4197114,cafe,,,,,,,,,,,,,,,,,,,,,,;;
3832368052,41.9898127,21.4196296,pharmacy,,Betty,,,,,,,,,,,,,,,,,,,,;;
3832475135,41.9922973,21.4427246,restaurant,,Лезет,,,,,,,,,,,,,,,,,,,,;;
3832475147,41.9922032,21.4422139,restaurant,,Кај Злате,,,,,,,,,,,,,,,,,,,,;;
3832560536,41.9858428,21.4280517,drinking_water,,,,,,,,,,,,,,,,,,,,,,;;
3832632320,41.9898623,21.4246243,university,,Медицински Факултет,,,,,,,,,,,,,,,,,,,,;;
3909066219,42.0084895,21.4010837,restaurant,,бед бунар,,,,,,,,,,,,,,,,,,,,;;
3951819586,41.9748528,21.4093282,restaurant,,бимекс,,,,,,,,,,,,9:00-24:00,,,,,,,,;;
4004645106,41.9957324,21.4301301,restaurant,Peking Garden,Пекинг Гарден,,MK,Cкoпje,Максим Горки,3,1000,,,,,,Mo-Sa 11:00-24:00; Su 12:00-23:00,,,,,,,+389 2 3221173,www.pekinggarden.mk;
4012005789,42.0050347,21.4099801,bicycle_parking,,,,,,,,,,,,,,,,,,,,,,;;
4012028345,41.9988690,21.4205887,bank,Stopanska Banka,Стопанска Банка,Stopanska Banka,,,,,,,,,,,,Стопанска Банка АД - Скопје,,,,,,,;;
4012028346,41.9987428,21.4214196,bank,,Комерцијална Банка,Komercijalna Bank,,,,,,,,,,,Mo-Fr 07:30-18:00; Sa 08:00-13:00,Комерцијална Банка АД Скопје,,,,,,,;
4012032275,41.9928898,21.4277915,ice_cream,,Ескимо,,,,,,,,,,,,,,,,,,,,;;
4016557277,41.9856123,21.4667276,restaurant,,Campione lounge Bar,,MK,Skopje,Boulevard Jane Sandanski,71A,1000,,,,,,Mo-Su 08:00-01:00,Campione,,,,,,+389 70 250 261,;;
4016557278,41.9859376,21.4661426,restaurant,,DejaVu Lounge,,MK,Skopje,Boulevard Jane Sandanski,71A,1000,,,,,,Mo-Su 08:00-01:00,DejaVu,,,,,,,;;
4016557285,41.9862924,21.4665149,parking_entrance,,,,,,,,,,,,,,,,,,,,,,;;
4016557286,41.9863181,21.4664667,parking_entrance,,,,,,,,,,,,,,,,,,,,,,;;
4059895433,41.9938379,21.4171609,atm,,,,,,,,,,,,,,,Охридска Банка,,,,,,,;;
4059895435,41.9937486,21.4177179,bank,,Шпаркасе Банка,,,,,,,,,,,,,,,,,,,,;;
4059895436,41.9938028,21.4172424,bank,,Охридска Банка,,,,,,,,,,,,,,,,,,,,;;
4059907155,41.9937283,21.4171739,cafe,,Авантура,,,,,,,,,,,,,,,,,,,,;;
4101107990,41.9871974,21.4365756,restaurant,,Makedonska sofra,,,,Јужен Булевар,,,,,,,,Mo-Sa 08:00-01:00,,,,,,,+38978929010,;;
4111477695,42.0093292,21.4537864,drinking_water,,,,,,,,,,,,,,,,,,,,,,;;
4112414253,42.0090765,21.4623906,drinking_water,,,,,,,,,,,,,,,,,,,,,,;;
4125379517,42.0009982,21.4128098,hospital,,Центар за ментално здравје,Center for mental health,,Cкoпje,Булевар Партизански Одреди,,1000,,,,,,,Министерство за здравство,,,,,,,;;
4125379518,42.0010726,21.4130411,hospital,,ПЗУ „Д-р Горица“,PZU D-r Gorica,,Cкoпje,Булевар Партизански Одреди,,1000,,,,,,,,,,,,,,;;
4126731457,41.9973371,21.4343571,pub,,Lounge Bar Divan,,,,,,,,,,,,,Hotel Stone Bridge,,,,,,,;;
4126731965,41.9973163,21.4345770,restaurant,,Sky ресторанот,Sky Restaurant,,,,,,,,,,,,Hotel Stone Bridge,,,,,,,;;
4127702172,41.9933756,21.4364355,parking_entrance,,,,,,,,,,,,,,,,,,,,,,;;
4127702174,41.9934071,21.4364073,parking_entrance,,,,,,,,,,,,,,,,,,,,,,;;
4127703095,41.9939088,21.4352001,parking_entrance,,,,,,,,,,,,,,,,,,,,,,;;
4127703159,42.0060140,21.4060937,parking_entrance,,,,,,,,,,,,,,,,,,,,,,;;
4127703162,42.0060387,21.4060991,parking_entrance,,,,,,,,,,,,,,,,,,,,,,;;
4128493690,41.9973555,21.4338670,parking_entrance,,,,,,,,,,,,,,,,,,,,,,;;
4138200603,42.0005964,21.4145316,hospital,,Неуромедика,Neuromedika,,,,,,,,,,,,,,,,,,,;;
4143960189,41.9981313,21.4393671,library,,Германска читалница,,MK,Cкoпje,Булевар Гоце Делчев,,1000,,,,,,Mo  We  Fr 11:00-14:30; Tu  Th 12:00-18:00; Sa[1] 11:00-15:00,,,,,,,,
4144098289,41.9980573,21.4397823,library,ACM Skopje,Американско катче Македонија,American Corner Macedonia,MK,Cкoпje,Булевар Гоце Делчев,6,1000,,,,,,Mo-Fr 10:00-20:00; Sa 11:00-16:00,,,,,,,+389 2 3120020,https://www.acmacedonia.org/;
4144098413,41.9989812,21.3914126,taxi,,,,,,,,,,,,,,,,,,,,,,;;
4144098442,42.0042912,21.3926491,taxi,,,,,,,,,,,,,,,,,,,,,,;;
4144098444,42.0045503,21.3906080,motorcycle_parking,,,,,,,,,,,,,,,,,,,,,,;;
4144098450,42.0047835,21.3905892,taxi,,1/3,,,,,,,,,,,,,,,,,,,,;;
4144098451,42.0046642,21.3909854,bank,Komercijalna Banka,Комерцијална Банка,Komercijalna Banka,,,,,,,,,,,,Комерцијална Банка АД Скопје,,,,,,,;;
4144229197,42.0027717,21.3919459,parking_entrance,,,,,,,,,,,,,,,,,,,,,,;;
4149490289,41.9933026,21.4300742,restaurant,,Amigos Мексиканска Кантина,Amigos Mexican Cantina,,Скопје,Македонија,11,1000,,,,,,Mo-Th 08:00-24:00  Fr Sa 08:00-01:00  Su 10:00-24:00,,,,,,,+389 71 230314,http://www.amigos.com.mk/;;
4149490303,41.9983327,21.3924412,atm,,,,,,,,,НЛБ - Тутунска Банка,,,,,24/7,НЛБ - Тутунска Банка,,,,,,,;;
4169882189,41.9920274,21.4295739,atm,,Шпаркасе,Sparkasse,,,Македонија,,,,,,,,,Шпаркасе,,,,,,,;;
4169893239,41.9939123,21.4009084,atm,,Шпаркасе,Sparkasse,,,Козле,53,,,,,,,,Шпаркасе,,,,,,,;;
4183631290,41.9964591,21.4317999,bench,,,,,,,,,,,,,,,,,,,,,,;;
4183631291,41.9964120,21.4317342,bench,,,,,,,,,,,,,,,,,,,,,,;;
4183631292,41.9963742,21.4316799,bench,,,,,,,,,,,,,,,,,,,,,,;;
4183631293,41.9963330,21.4316131,bench,,,,,,,,,,,,,,,,,,,,,,;;
4183631294,41.9962758,21.4315305,bench,,,,,,,,,,,,,,,,,,,,,,;;
4183631295,41.9962993,21.4314377,bench,,,,,,,,,,,,,,,,,,,,,,;;
4183631296,41.9963851,21.4315656,bench,,,,,,,,,,,,,,,,,,,,,,;;
4183631297,41.9964339,21.4316392,bench,,,,,,,,,,,,,,,,,,,,,,;;
4183631298,41.9963422,21.4315113,bench,,,,,,,,,,,,,,,,,,,,,,;;
4183704852,41.9832059,21.4177576,drinking_water,,,,,,,,,,,,,,,,,,,,,,;;
4183728635,41.9688106,21.4039469,bench,,,,,,,,,,,,,,,,,,,,,,;;
4183728637,41.9713133,21.4039388,bench,,,,,,,,,,,,,,,,,,,,,,;;
4187276689,41.9977923,21.4941048,fast_food,,Томи,,,,,,,,,,,,,,,,,,,,;;
4187277089,41.9978042,21.4944502,toilets,,,,,,,,,,,,,,,,,,,,,,;;
4190875071,41.9983035,21.4231958,drinking_water,,,,,,,,,,,,,,,,,,,,,,;;
4190893589,42.0000584,21.4237032,fast_food,,Пемпеле,Pempele's Pizza,,,,,,,,,,,,,,,,,,,http://www.pizzapempele.mk;;
4195733217,41.9955972,21.4338587,restaurant,,Соул кичен,Soul-Kitchen,MK,Cкoпje,Кеј 13 Ноември,,1000,,,,,,,Soul-Kitchen,,,,,,,;;
4197577689,41.9847345,21.4549624,atm,,,,,,,,,,,,,,24/7,,,,,,,,;;
4198944089,42.0046060,21.3862677,cafe,,Ch2pter,Ch2pter,MK,Cкoпje,Љубљанска,4,,,,,,,09:00-23:45; Fr-Sa 09:00-23:45,,,,,,,+389 75 490 155,http://www.caffetrend.mk/;
4224249974,42.0136665,21.4040899,parking_entrance,,,,,,,,,,,,,,,,,,,,,,;;
4225448689,42.0151641,21.3990452,cafe,,Tonnis Bakeri,,,,,,,,,,,,,Tonnish Bakeri,,,,,,,;;
4225448690,42.0152020,21.3996850,atm,,,,,,,,,NLB Tutunska Banka,,,,,24/7,NLB Tutunska Banka,,,,,,,;;
4228828360,42.0137478,21.4041470,cafe,,Coffeeshop Company lounge,Mezzo Coffee & Lounge,,,,,,,,,,,,Sistina,,,,,,,;;
4233194691,42.0433297,21.3418406,cafe,,Makreshanki,,,,,,,,,,,,,,,,,,,,;;
4234141389,41.9916779,21.4189621,kindergarten,,Кочо Рацин,,,,Козара,26А,1000,,,,,,,,,,,,,,;;
4234144690,41.9984995,21.4168806,cafe,,Belier,,,,Владимир Полежановски,,1000,,,,,,,,,,,,,,;;
4234366920,42.0137911,21.4039823,atm,,,,,,,,,Стопанска Банка АД - Битола,,,,,24/7,Стопанска Банка АД - Битола,,,,,,,;;
4239053639,42.0229923,21.4307185,restaurant,,Beta,,,,,,,,,,,,,,,,,,,,;;
4242928409,41.9834793,21.4391463,drinking_water,,Чешма,,,,,,,,,,,,,,,,,,,,;;
4242928563,41.9831345,21.4393703,bus_station,,Стара Чешма,,,,,,,,,,,,,ЈСП,,,,,,,;;
4247226994,42.0048738,21.3910392,cafe,,Juicy and Co,,,,,,,,,,,,,,,,,,,,;;
4249432793,41.9979016,21.4466679,car_rental,,Compass Service Rent-a-Car,,,,Булевар Гоце Делчев,17A,1000,,,,,,24/7,Petar Stojanovski,,,,,,+38978807341,https://www.facebook.com/Prevoz-na-patnici-CompassService-rent-a-car-207419192927497/;;
4250231589,41.9869314,21.4308515,bureau_de_change,,,,,,,,,,,,,,,,,,,,,,;;
4253210327,41.9495659,21.4212497,restaurant,,Мулино Гарден,,,,,,,,,,,,,,,,,,,,;;
4264292908,42.0096500,21.3602038,pharmacy,,Астра Фарм,Astra Farm,,,4 Јули,,,,,,,,,,,,,,,,;;
4266031163,41.9959185,21.4032227,drinking_water,,Чешма,,,,,,,,,,,,,,,,,,,,;;
4266034097,41.9846955,21.4387451,bank,,Комерцијална Банка,,,,,,,,,,,,,,,,,,,,;;
4266034098,41.9850045,21.4377527,pharmacy,,Зегин,,,,,,,,,,,,,,,,,,,,;;
4274196794,41.9929669,21.4411380,bureau_de_change,,,,,,,,,,,,,,,,,,,,,,;;
4274264489,41.9910228,21.4455539,bureau_de_change,,,,,,,,,,,,,,,,,,,,,,;;
4275843195,41.9969599,21.4160063,restaurant,,Лавче,,,,,,,,,,,,,,,,,,,,;;
4281387189,42.0126768,21.5104934,school,,SH.F  25 Maji,,,,,,,,,,,,,,,,,,,,;;
4281387289,42.0160266,21.5118538,hospital,,Medical Point,,,,alija avdovikj 3/2-1,,,,,,,,Mo-Su 08:00-22:00,,,,,,,+38970911013,;;
4292166489,41.9629014,21.4498792,bus_station,,,,,,Христо Татарчев,23,,,,,,,,,,,,,,,;;
4292166789,41.9625781,21.4499292,bus_station,,,,,,Христо Татарчев,23,,,,,,,,,,,,,,,;;
4302211290,42.0030463,21.4002154,restaurant,,Бабе,,,,,,,,,,,,,,,,,,,,;;
4304451302,41.9994358,21.4366103,cafe,,Clique Bar,,,,,,,,,,,,24/7,,,,,,,,;;
4306375307,42.0018882,21.4114565,dentist,,Bela Dent,,,,Иван Аговски,,,,,,,,,,,,,,,,;;
4308211306,41.9846856,21.4386435,parking,,,,,,,,,,,,,,,,,,,,,,;;
4318400296,41.9915744,21.4655483,restaurant,,Златна вилушка,,,,Булевар АСНОМ,24,,,,,,,,,,,,,,,;;
4327921318,42.0034137,21.3986642,restaurant,,Thong Thai,,,,,,,,,,,,Sa-Su 10:00-01:00,Thong Thai,,,,,,+38971661234,;;
4327921319,42.0032279,21.3986571,pub,,,,,,,,,,,,,,,,,,,,,,;;
4327921320,42.0033204,21.3981384,cafe,,Prikazna,,,,,,,,,,,,,,,,,,,,;;
4329159695,42.0162622,21.4014607,biergarten,,Ветер и магла,Veter i magla Pub,,,,,,,,,,,,,,,,,,,;;
4332812591,41.9845529,21.4768318,fountain,,Фонтана Тоше Проески,,,,,,,,,,,,,,,,,,,,;;
4332828390,41.9779014,21.4642214,place_of_worship,,Крст,,,,Булевар Србија,,,,,,,,,,,,,,,,;;
4346542839,41.9927317,21.4301208,restaurant,,Lounge Bar & Restaurant Square 21,,,,,,,,,,,,,,,,,,,,;;
4346544519,41.9927626,21.4305562,studio,,ТВ21,TV21,,,,,,,,,,,24/7,,,,,,,+389 2 3 135 630,https://tv21.tv/web/;;
4353988902,41.9800445,21.4374424,doctors,,,,,,Божидар Аџија,7,1000,,,,,,,,,,,,,,;;
4355253301,41.9877171,21.4531813,fast_food,,Лесковачка Вили,,,,,,,,,,,,,,,,,,,,;;
4355351120,41.9946043,21.4325806,drinking_water,,,,,,,,,,,,,,,,,,,,,,;;
4355675606,41.9788465,21.4826074,restaurant,,Ресторан Златник,,,,,,,,,,,,,,,,,,,,;;
4358669396,41.9946200,21.4417380,bar,,samocod,,,,,,,,,,,,,,,,,,,,;;
4359833889,41.9911127,21.4454673,cafe,,,Cafe Jabolko,,,,,,,,,,,Mo-Su 06:00-22:00,,,,,,,,;;
4359835489,41.9909851,21.4456144,atm,,,ATM,,,,,,,,,,,24/7,,,,,,,,;;
4375513890,42.0110921,21.3602983,bar,,КАМИН КАМА,Kamin Kama,,Скопје,Лука Геров,,1000,,,,,,Mo-Su 10:00-00:00,,,,,,,,;;
4375519189,41.9928765,21.4341995,pharmacy,,Зегин ( стара градска болница),Zegin,,,Филип Втори Македонски,,1000,,,,,,24/7,,,,,,,,;;
4375519489,41.9728434,21.4448074,cafe,,Гет Кафе,Get caffe,,,Христо Татарчев,,1000,,,,,,Mo-Su 10:00-00:00,,,,,,,,;;
4375519490,42.0041882,21.4011992,school,,ДСУ  Никола Карев,,,,Никола Русински,,,,,,,,,,,,,,,,;;
4379207738,41.9866117,21.4670763,school,,Едукативен центар СОНЦЕ,Educational Center SONCE,,,,,,,,,,,,,,,,,,,;;
4379227306,41.9850294,21.4678894,townhall,,Општина Аеродром,Municipality of Aerodrom,,Cкoпje,Булевар Јане Сандански,109b,1000,,,,,,,,,,,,,,;;
4386697491,41.9996587,21.4363148,bar,,tavce gravce,,,,,,,,,,,,,,,,,,,,;;
4386763889,41.9999897,21.4367578,bar,,beer cafe,,,,,,,,,,,,,,,,,,,,;;
4391938589,41.9793282,21.4363615,telephone,,38a,,,,,,,,,,,,,,,,,,,,;;
4394802591,42.0031488,21.4005479,fast_food,,7,7,,,,,,,,,,,,,,,,,,,http://www.7.mk;;
4406532855,41.9953546,21.3679919,restaurant,,Вила Веранда,Vila Veranda,,,,,,,,,,,,,,,,,,,;;
4406967799,41.9525587,21.3059402,drinking_water,,,,,,,,,,,,,,,,,,,,,,;;
4406974490,41.9518181,21.3042751,drinking_water,,,,,,,,,,,,,,,,,,,,,,;;
4407370494,41.9883207,21.4520843,restaurant,,еквестријан,equestrian,,,,,,,,,,,,,,,,,,,;;
4410665289,42.0069742,21.3831677,school,,ASM,American School Macedonia,,,,,,,,,,,,,,,,,,,;;
4436518191,41.9996618,21.4362461,restaurant,,Kaj Serdarot,,,,,,,,,,,,,,,,,,,,;;
4436534289,41.9996701,21.4360810,restaurant,,Destan,,,,,,,,,,,,,,,,,,,,;;
4436534489,41.9994953,21.4355402,restaurant,,Австриска палта,Austrian Palace,,,,,,,,,,,,,,,,,,,;;
4440355655,42.0048106,21.4536007,drinking_water,,,,,,,,,,,,,,,,,,,,,,;;
4448978289,41.9833896,21.4392671,bank,,Уни Банка - Кисела Вода,,,,,,,,,,,,,,,,,,,,;;
4449621005,41.9974707,21.5737133,pharmacy,,Zegin,,,,Улица 8,,,,,,,,,,,,,,,,;;
4456514081,41.9973758,21.5737139,fast_food,,Gyroland,,,,,,,,,,,,,,,,,,,,;;
4459578969,41.9949989,21.4355402,restaurant,Amica,Амика,,MK,Cкoпje,Кеј 13 Ноември,,1000,,,,,,,,,,,,,,;;
4459578970,41.9952945,21.4345705,bank,NLB Tutunska banka,НЛБ Тутунска банка,,MK,Cкoпje,Кеј 13 Ноември,28,1000,,,,,,,,,,,,,,;;
4461569260,42.0082843,21.3911827,car_wash,,,,,,,,,,,,,,,,,,,,,,;;
4462315852,42.0080221,21.3917401,car_wash,,,,,,,,,,,,,,,,,,,,,,;;
4468238061,42.0102127,21.5100182,parking,,,,,,,,,,,,,,,,,,,,,,;;
4471884330,42.0059792,21.4272930,restaurant,,Four,,,,,,,,,,,,,Hotel Park Spa,,,,,,,;;
4476978892,41.9886058,21.4527160,dentist,,Ендомак,Endomak,,Cкoпje,23 Октомври,18А лок. 8,1000,,,,,,Mo-Fr 09:00-18:00,,,,,,,+38922456333,http://endomak.com.mk;;
4481662566,41.9957030,21.4335119,restaurant,Dion,Дион,,,,,,,,,,,,,,,,,,,,;;
4491144570,42.0045887,21.3936186,restaurant,,Ресторан Буре Срна,Restaurant Bure Srna,,Cкoпje,Никола Русински,,1000,,,,,,Mo-Su 08:00-00:00,,,,,,,+38923066676,https://buresrna.mk/;;
4502199191,41.9952676,21.4296796,bank,,ПроКредит,,,,,,,,,,,,,,,,,,,,;;
4512189989,42.0179859,21.3825697,hospital,,Медика Центар,Medica Centar,,,Skupi22,10,1000,,,,,,24/7,,,,,,,+38970206097,;;
4516027391,41.9919726,21.4496023,cafe,,,Get Caffe,,,,,,,,,,,,,,,,,,,;;
4520496813,41.9990908,21.4704624,parking,,,,,,,,,,,,,,,,,,,,,,;;
4531682389,41.9959806,21.4021635,restaurant,,Македонска куќа,Macedonian House Restaurant,,,Митрополит Теодосиј Гологанов,63,1000,,,,,,Mo-Su 08:00-00:00,Kiro Ilijeski -Kambero,,,,,,+38923296415,http://www.makedonskakuka.com;;
4532501690,42.0131479,21.4386491,doctors,,,Lek,,,,,,,,,,,24/7,,,,,,,,;;
4552084306,42.0030521,21.4648097,restaurant,,Кај Тоше на Ќоше,,,,,,,,,,,,,,,,,,,,;;
4558218294,41.9575652,21.4398646,car_wash,,HEMISKO CISTENJE POLIRANJE BOBI-MAFRA AVTOMOBILI AVTOBUSI KAMIONI TAPACIRAN MEBEL DUSECI,Car detailing Bobi-Mafra,,,христо татарчев,,,,,,,,,,,,,,,+38978262979,;;
4573205007,42.0034052,21.3964504,bank,,Halkbank,,,,,,,,,,,,,,,,,,,,;;
4573205008,42.0034744,21.3979429,fast_food,,Tripod King,,,,,,,,,,,,,,,,,,,,;;
4573205010,42.0026669,21.3963477,fast_food,Vegera,Вегера,Vegera,,,,,,,,,,,Mo-Sa 06:00-24:00  Su 08:00-24:00,,,,,,,,;;
4573205016,42.0033742,21.3966968,bank,,Шпаркасе,Sparkasse,,,,,,,,,,,,,,,,,,,;;
4594432342,41.9948430,21.4356090,car_rental,,ABC Rent a Car,,,,,,,ABC,,,,,,ABC,,,,,,,;;
4594432343,41.9955027,21.4341686,pub,Cafe Alo Alo,Ало ало,,MK,Скопје,Кеј 13 Ноември,,1000,,,,,,,Cafe Alo Alo,,,,,,,;;
4594432344,41.9952816,21.4348936,fast_food,La Puerta,Ла Пуерта,,,,,,,,,,,,,,,,,,,,;;
4594432345,41.9948730,21.4359281,casino,,Le Grand Casino,,,,,,,,,,,,,,,,,,,,;;
4594432346,41.9954679,21.4342829,pub,The Dubliner,Даблинер,,MK,Скопје,Кеј 13 Ноември,,1000,,,,,,,The Dubliner,,,,,,,;;
4594432364,41.9958233,21.4332123,parking_entrance,,,,,,,,,,,,,,,,,,,,,,;;
4594432367,41.9955887,21.4336687,bank,Stopanska Banka,Стопанска банка,Stopanska Banka,,,,,,,,,,,,Стопанска Банка АД - Скопје,,,,,,,;;
4594432368,41.9957551,21.4333409,atm,Stopanska Banka,Стопанска Банка,Stopanska Banka,,,,,,,,,,,,Стопанска Банка АД - Скопје,,,,,,,;;
4598662194,41.9975719,21.4042016,clinic,,Авицена Лабораторија,Avicena Laboratory,,,Булевар 8-ми Септември,2,1000,,,,,,Mo-Fr 07:00-19:30; Sa 07:00-14:00,,,,,,,+389 2 317 9001,https://avicenalab.com.mk/;
4613945889,41.9922274,21.4096194,dentist,,Dr. Margita,Dr. Margita,,,,,,,,,,,,,,,,,,,;;
4614661190,41.9969243,21.4085080,pharmacy,,Опоум,Opium,,,,,,,,,,,,,,,,,,,;;
4620974910,42.0218294,21.4397641,taxi,,3/4,,,,,,,,,,,,,Eurokom,,,,,,,;;
4620974911,42.0172304,21.4434012,taxi,,3/5,,,,,,,,,,,,,Eurokom,,,,,,,;;
4620974912,42.0133325,21.4387395,taxi,,3/3,,,,,,,,,,,,,Eurokom,,,,,,,;;
4620974913,42.0105783,21.4401182,taxi,,3/2,,,,,,,,,,,,,,,,,,,,;;
4620974914,42.0053327,21.4429291,taxi,,G / B,,,,,,,,,,,,,,,,,,,,;;
4620974915,42.0029927,21.4400377,taxi,,4/1,,,,,,,,,,,,,Eurokom,,,,,,,;;
4620974916,42.0077084,21.4352258,taxi,,3/1,,,,,,,,,,,,,,,,,,,,;;
4632218402,41.9843123,21.4646941,coworking_space,,GEO PRIM INZENERING,,,Skopje,Булевар Јане Сандански,70/2,1000,,,,,,Mo-Fr 08:00-16:00,,,,,,,,;;
4650540393,41.9956244,21.5093746,fast_food,,Ketering Vkusno,,,,Париска Комуна,,,,,,,,,,,,,,,,;;
4650542892,41.9932328,21.5078989,restaurant,,Гостилница Софра,Gostilnica Sofra,,,Париска Комуна,,,,,,,,,,,,,,,,;;
4650625589,41.9951884,21.5099084,restaurant,,Пицерија Кремисимо,Picerija Kremisimo,,,,,,,,,,,,,,,,,,,;;
4658223490,42.0279527,21.5133898,school,,ОУ Кирил и Медодиј,OU Kiril i Metodij,,,,,,,,,,,,,,,,,,,;;
4658223491,42.0276010,21.5137772,cafe,,Лав Фонтана,Lav Fontana,,,,,,,,,,,,,,,,,,,;;
4658242090,42.0066260,21.5029163,fast_food,,,City Fast Food,,,Јужноморавски Бригади,,,,,,,,,,,,,,,,;;
4658245989,42.0274866,21.5136145,bus_station,,Последна 65-ка,Posledna 65-ka,,,Алија Авдовиќ,,1000,,,,,,,,,,,,,,;;
4674392389,41.9540687,21.2889878,place_of_worship,,Sveti Spas,,,,,,,,,,,,,,,,,,,,;;
4708705494,41.9914476,21.4174048,school,,Helen Doron Kapistec,,,,,,,,,,,,,,,,,,,,;;
4710531782,42.0068068,21.4264446,bar,,Bar Reka,,,,,,,,,,,,,,,,,,,,;;
4716070878,42.0073738,21.4062409,car_wash,,Carwash,,,,,,,,,,,,,,,,,,,,;;
4720703993,41.9978436,21.4600445,restaurant,,Dojrana Skopje,,,,,,1000,,,,,,,,,,,,,,;;
4732880619,42.0027342,21.4232138,fountain,,,,,,,,,,,,,,,,,,,,,,;;
4734473401,42.0180550,21.4474069,fast_food,,Burek,,,Cкoпje,Булевар Христијан Тодоровски Карпош,,,,,,,,,Torbes,,,,,,,;;
4739771021,42.0017496,21.4606362,fuel,,Дома,Doma,,,Јани Лукровски,2,1000,,,,,,24/7,Bojan Stankovski,,,,,,,;;
4740585021,42.0014080,21.3781116,car_wash,,Дартекс Перење Теписи,Dartex tepich cleaning,,,Ванчо Мицков,41,1020,,,,,,Mo-Sa 09:00-18:00,,,,,,,+38971266866,http://www.dartex.mk;;
4740732822,42.0024666,21.3975443,bank,,Sparkasse,Ohridska Banka,,,,,,,,,,,,,,,,,,,;;
4741260650,41.9847107,21.4220562,arts_centre,,Atelje Bojar,,,,Salvador Aljende,,,,,,,,,,,,,,,+38971730550,http://www.bojar.org;;
4742916122,41.9936320,21.4109915,bank,,НЛБ Тутунска Банка,,,,Франклин Рузвелт,1,,,,,,,Mo-Su 08:00-17:00,,,,,,,+38923089090,http://www.nlb.mk;;
4776265422,42.0035328,21.4407164,hospital,,ЈЗУ ЗДРАВСТВЕН ДОМ,,,,,,,,,,,,,,,,,,,,;;
4790610721,41.9939247,21.4134179,drinking_water,,,,,,,,,,,,,,,,,,,,,,;;
4790623921,41.9933305,21.4134001,drinking_water,,,,,,,,,,,,,,,,,,,,,,;;
4794044627,42.0023100,21.4235498,bar,,Speakeasy,,,,,,,,,,,,,,,,,,,,;;
4839149455,41.9957057,21.4320378,pub,,Колектив,Kolektiv,,,,,,,,,,,,Колектив,,,,,,,;;
4845161021,42.0130581,21.4354285,bus_station,,,,,,Џон Кенеди,,,,,,,,,,,,,,,,;;
4845161022,42.0134567,21.4394950,bus_station,,,,,,,,,,,,,,,,,,,,,,;;
4845182821,42.0165220,21.4470617,bus_station,,,,,,,,,,,,,,,,,,,,,,;;
4845182822,42.0214168,21.4467678,bus_station,,,,,,,,,,,,,,,,,,,,,,;;
4845182921,42.0217932,21.4391929,bus_station,,,,,,,,,,,,,,,,,,,,,,;;
4845182922,42.0223540,21.4329444,bus_station,,,,,,,,,,,,,,,,,,,,,,;;
4846704245,41.9954521,21.4271773,cafe,,Крин,,,,,,,,,,,,,,,,,,,,;;
4846704246,41.9958705,21.4276434,pharmacy,,Виола,Viola,,,,,,,,,,,Mo-Fr 07:30-22:00; Sa 08:00-22:00; Su 09:00-17:00,,,,,,,+389 2 3125 155,https://viola.mk/
4846704247,41.9954508,21.4273767,pharmacy,,Зегин,Zegin,,,,,,,,,,,Mo-Fr 07:00-22:00; Sa 08:00-22:00; Su 08:00-16:00,,,,,,,,
4881325493,42.0062605,21.4061819,bar,,Minus Eden,,,,,,,,,,,,Tu-Sa 00:00-04:00,,,,,,,,;;
4881325494,42.0062040,21.4063065,casino,,Senator Jackpot,,,,,,,,,,,,,senator,,,,,,,;;
4894991469,42.0015851,21.3950847,music_school,,Piano Forte,Piana Forte,,,,,,,,,,,,,,,,,,,;;
4895300621,42.0054870,21.4431109,place_of_worship,,,,,,,,,,,,,,,,,,,,,,;;
4908711070,42.0077690,21.4207487,nightclub,Summer Club Butler,Летен клуб „Батлер“,,,,,,,,,,,,,,,,,,,,;;
4908711071,42.0074138,21.4211163,nightclub,Summer Club Havana,Летен клуб „Копакабана“,,,,,,,,,,,,,,,,,,,,;;
4908711072,42.0081867,21.4209543,nightclub,XL Summer Club,Летен клуб „XL“,,,,,,,,,,,,,,,,,,,,;;
4920962547,42.0038168,21.3878449,fast_food,,Domino's,,,,,,,Domino's,,,,,,Domino's,,,,,,,;;
4926298321,41.9909344,21.4506076,dentist,,Скопјанка Супердент,Skopjanka Superdent,,,Владимир Комаров,,1000,,,,,,Mo-Fr 07:30-15:30,,,,,,,+38975435235,;;
4935294926,42.0123976,21.4451457,restaurant,,,,,,,,,,,,,,,,,,,,,,;;
4938094324,41.9916808,21.4376415,pharmacy,,,,,,Булевар Кочо Рацин,,,Life,,,,,,,,,,,,,;;
4938101522,41.9917059,21.4378292,atm,,,,,,Булевар Кочо Рацин,,,,,,,,,Шпаркасе,,,,,,,;;
4940434121,41.9591336,21.5387866,drinking_water,,,,,,,,,,,,,,,,,,,,,,;;
4976333621,41.9873843,21.4613290,fountain,,Парк на светлината,Garden of lights,,,,,,,,,,,,,,,,,,,;;
4976334921,41.9934584,21.4634442,fountain,,Паркот на езерата,The garden of lakes,,,,,,,,,,,,,,,,,,,;;
4976334922,41.9913259,21.4640869,restaurant,,Т'га за југ,T'ga za jug,,,,,,,,,,,,,,,,,,,;;
4982232721,41.9988648,21.4238693,restaurant,,,BistRaw,,,,,,,,,,,Mo-Fr 12:00-20:00,,,,,,,,;;
4986311021,41.9909648,21.4650587,fast_food,,,Kono pizza,,,,,,,,,,,,,,,,,,,;;
4986311121,41.9885027,21.4534770,cafe,,,Happy,,,,,,,,,,,,,,,,,,,;;
4990134422,42.0024902,21.4394269,pharmacy,,Зегин,,,,Булевар Крсте Мисирков,,,,,,,,,,,,,,,,;;
4990142138,42.0195979,21.4412533,restaurant,,Бизнис,,,,Ресенска,1,,,,,,,,,,,,,,,;;
4990142140,41.9958867,21.4087335,casino,,Zlatna Kopacka,,,,,,,,,,,,,,,,,,,,;;
4990142142,42.0591176,21.4512951,casino,,Sportlife,,,,Радишанска,,,,,,,,,,,,,,,,;;
4990146123,42.0140898,21.4433645,post_office,,Пошта Чаир,,,,Џон Кенеди,,,,,,,,,,,,,,,,;;
4990146131,41.9715732,21.4563516,kindergarten,,Во светот на децата,,,,,,,,,,,,,,,,,,,,;;
4990148632,41.9960148,21.4092857,casino,,Sportlife,,,,,,,,,,,,,,,,,,,,;;
5000131675,41.9945773,21.4678840,bench,,,,,,,,,,,,,,,,,,,,,,;;
5000131676,41.9950617,21.4634477,bench,,,,,,,,,,,,,,,,,,,,,,;;
5017093623,41.9963142,21.4274642,bureau_de_change,,,,,,,,,,,,,,,,,,,,,,;;
5019758021,42.0039853,21.4280925,restaurant,,Парк,Park,,,,,,,,,,,,,,,,,,,;;
5020280587,41.9497269,21.2914891,place_of_worship,,Sveta Nedela,,,,,,,,,,,,,,,,,,,,;;
5025833449,42.0068653,21.4206127,nightclub,Epicentar,Епицетар,,,,,,,,,,,,WE-Su 23:45-05:00,,,,,,,,https://www.facebook.com/pg/ClubEpicentar/events/?ref=page_internal;;
5025833450,42.0079675,21.4228536,nightclub,Summer Club Central Park,Летен клуб „Централ парк“,,,,,,,,,,,,WE-Su 23:45-05:00,,,,,,,,https://www.facebook.com/pg/BestClubSkopje/about/?ref=page_internal;;
5033108253,42.0005946,21.4191901,restaurant,,Кантина,,,Cкoпje,Радњанска,4,1000,,,,,,Monday- Satudray 09:00-24:00,,,,,,,,;;
5041735621,42.0049046,21.3909815,fast_food,,Chicken House,Chicken House,,,,,,,,,,,,,,,,,,,;;
5054190437,41.9567000,21.2962080,waste_basket,,,,,,,,,,,,,,,,,,,,,,;;
5054190439,41.9559561,21.2964975,bench,,,,,,,,,,,,,,,,,,,,,,;;
5054190441,41.9551822,21.2967780,bench,,,,,,,,,,,,,,,,,,,,,,;;
5054709625,42.0042011,21.5047496,pharmacy,,BETTY,,,,,,,,,,,,,,,,,,,,https://betty.mk/;;
5054709626,42.0035989,21.5041694,bank,,НЛБ Тутунска Банка,,,,,,,,,,,,,,,,,,,,http://www.nlbtb.com.mk/;;
5055455127,41.9868165,21.4310260,atm,,,,,,,,,,,,,,,,,,,,,,;;
5058090722,42.0063640,21.4061742,language_school,,Гете-институт - Скопје,Goethe Institute - Skopje,,Cкoпje,8. Септември,1/5,1000,,,,,,Mo-Fr 08:30–16:00,Goethe Institute,,,,,,+389 2 3121604;+389 71 216 121,https://www.goethe.de/ins/mk/mk/index.html;
5062450021,42.0131776,21.4378942,cafe,,Te Flladi,,,,Џон Кенеди,,1000,,,,,,Mo-Su 06:00-02:00,Nazim Sulejmani,,,,,,+38978324244,;;
5064700321,42.0353232,21.4044150,restaurant,,Аликас,Alikas,,Визбегово,Ul Качанички пат,148,,,,,,,,,,,,,,,;;
5072397092,41.9914306,21.4633394,restaurant,,Пицерија Фамилија,Pizza Familija,,,,,,,,,,,,,,,,,,,;;
5074216083,41.9908973,21.3161910,restaurant,,Er & Bi,,,,,,,,,,,,,,,,,,,,www.erbi.com.mk;;
5093444115,41.9955629,21.4261760,pub,,Piazza Liberta,,,,,,,,,,,,,,,,,,,,http://piazzaliberta.mk/;;
5093577121,42.0003725,21.4350511,bus_station,,,meet point,,,,,,,,,,,,,,,,,,,;;
5094555424,42.0618376,21.4507243,pharmacy,,Зегин,Zegin,,,,,,,,,,,,,,,,,,,;;
5101621121,42.0068376,21.3328887,restaurant,,,GARDEN,,,Булевар Ѓорче Петров,,1000,,,,,,Mo-Su 09:00-00:00,,,,,,,+389 78 239 711,;;
5110720230,42.0013523,21.4376398,biergarten,La Kaña,Ла Кања,,,,,,,,,,,,,,,,,,,,;;
5110720231,42.0011325,21.4375923,cafe,Shisha,Shisha,Shisha,,,,,,,,,,,Mo-Su 10:00-22:00,,,,,,,,;;
5110720232,42.0012910,21.4378235,bar,,Syri,,,,,,,,,,,,,,,,,,,,;;
5115636121,42.0003455,21.3382502,drinking_water,,,,,,,,,,,,,,,,,,,,,,;;
5116077621,41.9988440,21.4254663,drinking_water,,,,,,,,,,,,,,,,,,,,,,;;
5119970621,41.9980880,21.4387470,community_centre,British Council,Британски совет,British Council,,,Булевар Гоце Делчев,6,1000,,,,,,Mo  We 13:00-17:30; Fr 10:00-13:00,,,,,,,+389 (0)2 3135 035,https://www.britishcouncil.mk/;
5126177223,41.9767846,21.4539166,nursing_home,,Bozinovski,Bozhinovski,,,Лазар Димитров,22a,1000,,,,,,,,,,,,,,;;
5129209624,42.0004422,21.4211669,bar,,Papillon,,,,,,,,,,,,,,,,,,,,;;
5130474890,41.9933702,21.4271939,hospital,,Здравствен дом „Железничар“,Železničar Health Centre,,,,,,,,,,,,,,,,,,,;;
5131817487,41.9955107,21.4255670,fast_food,,Domino's Pizza,,,Cкoпje,Димитрие Чуповски,26,1000,Domino's Pizza,,,,,Mo-Su 10:00-24:00,,,,,,,,;;
5131823434,41.9948876,21.4276102,bank,,TTK,,,,,,,,,,,,,,,,,,,,;;
5131832941,41.9948293,21.4276093,restaurant,,7 Скара Ресторан,7 Grill Restaurant,,Cкoпje,Даме Груев,7,1000,,,,,,Mo-Th 08:00-24:00; Sa 08:00-01:00,,,,,,,+38923224000,http://7.mk/skara-restoran/;
5160613722,41.9899769,21.4492023,restaurant,,Мезе Бар,Meze Bar,,Cкoпje,Булевар Кузман Јосифовски Питу,15,1000,,,,,,Fr-Su 08:00-01:00; Su 08:00-17:00; Mo-Th 08:00-00:00,,,,,,,+38926121214,https://www.facebook.com/mezebarskopjanka/
5164776021,41.9987825,21.3889793,drinking_water,,,,,,,,,,,,,,,,,,,,,,;;
5176232882,41.9928749,21.4195536,parking,,Зебра,,,,,,,,,,,,,,,,,,,,;;
5176248987,41.9927714,21.4192046,cafe,,Изи,Izzi,,,,,,,,,,,,,,,,,,,;;
5181488721,41.9700886,21.3602078,drinking_water,,,,,,,,,,,,,,,,,,,,,,;;
5184727125,42.0084679,21.3678533,restaurant,,Ubac,,,,Булевар Ѓорче Петров,2,1000,,,,,,,,,,,,,+38972555005,;;
5204164823,42.0033980,21.4170443,fast_food,,Royal Burger,,,,,,,,,,,,,,,,,,,,;;
5224224121,41.9916485,21.4223088,restaurant,,Gostilnica Gurman,guest house Gurman,,,,,1000,,,,,,Mo-Su 07:00-22:00,,,,,,,+38923176200,;;
5246219203,41.9868025,21.4193986,restaurant,,Баба Цана,Baba Cana,,,,,,,,,,,,,,,,,,,;;
5260415957,41.9981195,21.4239699,pub,,Паб Порта,Pub Porta,,Cкoпje,Булевар Партизански Одреди,21/A2-1,1000,,,,,,Mo-Th 09:00-00:00  Fr-Sa 09:00-01:00,,,,,,,,;;
5268700370,42.0044372,21.3931934,restaurant,,Pizza Jakomo,,,Cкoпje,Никола Русински,15,1000,,,,,,,,,,,,,+37976338668;+38978338668,http://www.pizzajakomo.com/;
5273369221,42.0218845,21.4394224,bureau_de_change,,мерса мобиле,mersa mobile,,,Втора Македонска Бригада,lok 8,1000,,,,,,Mo-Sa 09:00-21:00; Su 12:00-17:00,Harbin Ametaj,,,,,,+38922626808,http://www.mersamobile.com;
5284221296,42.0013652,21.4216953,cafe,,Laika,,,,,,,,,,,,,,,,,,,,;;
5284221297,42.0021654,21.4216722,bar,,Kaldrma,,,,,,,,,,,,,,,,,,,,;;
5284221299,42.0022762,21.4217791,bar,,Van Gogh,,,,,,,,,,,,,,,,,,,,;;
5288522422,41.9958526,21.4230134,cafe,New Age,Еу ејџ,,,,,,,,,,,,,,,,,,,,;;
5289611966,42.0057641,21.3813769,pub,,Pub,,,,,,,,,,,,,,,,,,,,;;
5289706560,41.9915759,21.4279999,fast_food,,Burger King,,,,,,,Burger King,,,,,,,,,,,,,;;
5289706561,41.9913338,21.4276864,restaurant,,Star Ocean,,,,,,,,,,,,,,,,,,,,;;
5292130834,41.9768128,21.4444199,cafe,,63,,,,,,,,,,,,,,,,,,,,;;
5292130848,42.0005187,21.4149006,restaurant,,Fitness house,,,,,,,,,,,,,,,,,,,,;;
5292130849,41.9965778,21.4245830,fast_food,,American best burger,,,,,,,,,,,,,,,,,,,,;;
5298107134,42.0040209,21.3978977,internet_cafe,,Insomnia Gaming Club,,,,,,,,,,,,,,,,,,,023066670,http://insomnia.mk/;;
5299446527,42.0051140,21.4084653,post_office,,Македонска пошта,,,,,,,,,,,,,,,,,,,,;;
5299947547,42.0029952,21.4000902,fast_food,,Foodio,,,,,,,,,,,,,,,,,,,,;;
5303948278,42.0078535,21.3688665,bar,,Hazard Club,,,,,,,,,,,,,,,,,,,,;;
5324087246,42.0052280,21.4108010,bar,,Tesla Bar,,,,,,,,,,,,,,,,,,,,;;
5331095878,42.0065896,21.4020786,fast_food,,Etna,,,,,,,,,,,,,,,,,,,,;;
5333318375,42.0029303,21.4004646,bank,,УНИБанка,UNIBank,,,,,,,,,,,,,,,,,,,http://www.unibank.com.mk/;;
5333318377,42.0028979,21.4006990,fast_food,,Жужу Бургер,,,,,,,,,,,,,,,,,,,,;;
5333318378,42.0028742,21.4008798,bank,,TTK Bank,,,,,,,,,,,,,,,,,,,,;;
5333318379,42.0028618,21.4010137,pharmacy,,Eurofarm,,,,,,,,,,,,,,,,,,,,;;
5333583388,42.0034483,21.3991821,cafe,,Giovani,Giovani,,,,,,,,,,,,,,,,,,,;;
5339314470,41.9976279,21.4332417,parking_entrance,,,,,,,,,,,,,,,,,,,,,,;;
5339772021,41.9947622,21.4290413,bar,,Centar Bar,,,,,,1000,,,,,,Mo-Su 09:00-23:00,,,,,,,,;;
5344777679,42.0072989,21.3715093,casino,,Admiral,,,,,,,,,,,,,,,,,,,,;;
5344777682,42.0079507,21.3696473,casino,,Senator,,,,,,,,,,,,,,,,,,,,;;
5344777689,42.0072007,21.3681630,pharmacy,,Зегин,Zegin,,,,,,,,,,,,,,,,,,,;;
5344777690,42.0073336,21.3682252,pharmacy,,Betty,,,,,,,,,,,,,,,,,,,,;;
5346935627,42.0047408,21.4099400,cafe,,,,,,,,,,,,,,,,,,,,,,;;
5363968025,42.0057849,21.3928860,parking_entrance,,,,,,,,,,,,,,,,,,,,,,;;
5389579247,42.0219469,21.3507063,car_wash,,Интер Кријорд,,,,,,,,,,,,,,,,,,,,;;
5389579252,42.0218850,21.3506365,veterinary,,Вет-Медика,,,,,,,,,,,,,,,,,,,,;;
5389579257,42.0219567,21.3516638,car_wash,,,,,,,,,,,,,,,,,,,,,,;;
5402663235,41.9830723,21.4711307,bar,,Coffeelix,,,,Булевар Јане Сандански,,1000,,,,,,Mo-Su 09:00-00:00,,,,,,,,;;
5431407636,42.0032708,21.4012616,fast_food,,Magic,,,,,,,,,,,,,,,,,,,,;;
5467884712,41.9837709,21.4808444,restaurant,,Segreto Plus,,,,,,,,,,,,,,,,,,,,;;
5477162224,42.0059837,21.3586972,bus_station,,Сагудати улица,,,,,,,,,,,,,,,,,,,,;;
5477162225,41.9974199,21.4228063,motorcycle_parking,,,,,,,,,,,,,,,07-21 / 07-14,,,,,,,;;
5477171921,41.9960390,21.4289957,motorcycle_parking,,,,,,,,,,,,,,,07-21 / 07-14,,,,,,,;;
5484708477,42.0007066,21.4268797,bar,,Thirio,,,,Булевар Илинден,38,,,,,,,,,,,,,,,;;
5518565239,41.9753116,21.4205398,bench,,,,,,,,,,,,,,,,,,,,,,;;
5518565240,41.9751965,21.4213122,bench,,,,,,,,,,,,,,,,,,,,,,;;
5518565241,41.9751133,21.4214727,bench,,,,,,,,,,,,,,,,,,,,,,;;
5518583287,41.9755086,21.4192797,shelter,,,,,,,,,,,,,,,,,,,,,,;;
5534803022,42.0023198,21.4218407,cafe,,Кахава,Cahawa,,,,,1000,,,,,,,,,,,,,,;;
5541129621,41.9817463,21.4543183,car_wash,,Авто перална,Avto Peralna Go Wash,,,Булевар 3та Македонска Бригада,50,1000,,,,,,Mo-Su 09:00-20:00,,,,,,,+38970601675,https://www.facebook.com/profile.php?id=100014789862844;;
5547993930,41.9790276,21.4863501,veterinary_pharmacy,,,,,,,,,,,,,,,,,,,,,,;;
5548809221,41.9995926,21.4366123,restaurant,,кај сердарот,Kaj Serdarot,,,,,,,,,,,,,,,,,,,;;
5559033546,41.9974686,21.4349757,pub,,Lounge Bar Divan,,,,,,,,,,,,,Hotel Stone Bridge,,,,,,,;;
5561692079,41.9729164,21.4565032,restaurant,,Тарапана,,,,,,,,,,,,,,,,,,,,;;
5572053321,42.0013292,21.4205747,restaurant,,Дебар Маало,Debar Maalo,,,Живко Чинго,,1000,,,,,,Su-Th 08:00-00:30; Fr-Sa 08:00-01:00,,,,,,,+38976219654,;
5584459881,42.0023986,21.4039653,fuel,,Макпетрол,Makpetrol,,Cкoпje,Булевар Партизански Одреди,,1000,Макпетрол,yes,yes,,yes,24/7,,,,,,,,http://www.makpetrol.mk;;
5600176621,42.0319727,21.4333393,hospital,,,bioenergy,,,,,,,,,,,,,,,,,,,;;
5604182920,41.9986406,21.4253762,cafe,,Mikel,Vinyl,,Cкoпje,Булевар Партизански Одреди,14,1000,,,,,,,,,,,,,,https://www.facebook.com/vinylmk/;;
5619946672,42.0013801,21.4134098,taxi,,Такси Вардар,Taxi Vardar,,,,,,,,,,,,,,,,,,,;;
5622210754,42.0087916,21.4181784,cafe,,Централ Парк,,,,,,,,,,,,,,,,,,,,;;
5624670966,42.0023813,21.4235595,restaurant,,МЦМ Мезе Бар,MCM Meze Bar,,,Булевар Илинден,80,1000,,,,,,24/7,,,,,,,+38970250420,;;
5624682355,42.0028235,21.4239655,restaurant,,Костарика,Kostarika,,,,,,,,,,,,,,,,,,,;;
5624682356,42.0033660,21.4242333,restaurant,,Калабалак,Kalabalak,,,,,,,,,,,,,,,,,,,;;
5624682357,42.0028813,21.4240111,restaurant,,Старо Скупи,Staro Skupi,,,,,,,,,,,,,,,,,,,;;
5624682358,42.0030128,21.4240218,restaurant,,Занзибар,Zanzibar,,,,,,,,,,,,,,,,,,,;;
5626432520,42.0013712,21.4210921,restaurant,,Идадија,Idadija,,,,,,,,,,,,,,,,,,,;;
5626433431,42.0014530,21.4214837,restaurant,,Наџак,Nadzak,,,,,,,,,,,,,,,,,,,;;
5626433457,42.0010941,21.4206632,restaurant,,Zing,Fruti Di Mare,,,,,,,,,,,,,,,,,,,;;
5626433480,42.0007591,21.4200490,restaurant,,Дебар Маало,Gostilnica Ilinden,,,,,,,,,,,,,,,,,,,;;
5626433502,42.0014888,21.4208615,restaurant,,Кај Перо,Kaj Pero,,,,,,,,,,,,,,,,,,,;;
5646430122,42.0130459,21.4434522,hospital,,Visar,,,,Ќемал Ататурк,,,,,,,,,,,,,,,,;;
5659318796,42.0002331,21.4234510,bar,,Radio bar,,,,,,,,,,,,,,,,,,,,;;
5660202454,41.9999867,21.4231465,fast_food,,Dogs bar,,,,,,,,,,,,,,,,,,,,;;
5667327221,42.0521251,21.3415172,nursing_home,,Феникс дом за стари лица,phoenix nursing home,,,,,,,,,,,,,,,,,,,;;
5672388922,42.0097099,21.4443175,car_wash,,перална,car wash automatic,,,Булевар Цветан Димов,,1000,,,,,,Mo-Su 08:00-00:00,,,,,,,,http://facebook.com/carwashavtomatik;;
5687563887,41.9944177,21.4318165,fast_food,,BubbleWaffle's,,,Скопје,Димитрие Чуповски,2,1000,,,,,,10:00-21:00,,,,,,,+389 78 243 483,https://www.facebook.com/bubblewaffleskopje/;;
5687566827,41.9892798,21.4595293,recycling,,,,,,,,,,,,,,,,,,,,,,;;
5690140438,41.9922468,21.4264143,cafe,,DejaVu,,,,,,,,,,,,,,,,,,,,;;
5690140660,41.9922273,21.4266738,cafe,,Istanbul,,,,,,,,,,,,,,,,,,,,;;
5692608680,41.9990664,21.4236496,restaurant,,Gostilnica Estel,,,,,,,,,,,,,Estel,,,,,,,;;
5713714222,42.0229571,21.3885778,cafe,,AvAv Dog Park,,,,,,,,,,,,,,,,,,,,;;
5723775524,42.0043046,21.4235182,drinking_water,,,,,,,,,,,,,,,,,,,,,,;;
5723775525,41.9993602,21.4366272,drinking_water,,,,,,,,,,,,,,,,,,,,,,;;
5723775526,42.0012102,21.4397416,drinking_water,,,,,,,,,,,,,,,,,,,,,,;;
5723775527,41.9954993,21.4401224,drinking_water,,,,,,,,,,,,,,,,,,,,,,;;
5723785794,41.9998074,21.4361306,bureau_de_change,,,,,,,,,,,,,,,,,,,,,,;;
5731830652,41.9934567,21.4326259,bank,,Halkbank,,,,,,,,,,,,,,,,,,,,;;
5737128327,41.9928021,21.4075984,childcare,,Miss Poppins gradinka,,,,,,,,,,,,,,,,,,,,;;
5752110870,42.0605945,21.3882173,parking,,,,,,,,,,,,,,,,,,,,,,;;
5759411265,41.9931833,21.4664512,atm,,,,,,,,,,,,,,,,,,,,,,;;
5759414045,41.9937893,21.4661079,bar,,Bar,,,,,,,,,,,,,,,,,,,,;;
5770427174,42.0063483,21.3740403,restaurant,,Aleksandrija,,,,,,,,,,,,,,,,,,,,;;
5775030453,41.9931868,21.4414844,cafe,,,O La La,,,,,,,,,,,,,,,,,,,;;
5775648351,41.9996604,21.4386391,parking_entrance,,,,,,,,,,,,,,,,,,,,,,;;
5775898209,41.9751093,21.3909369,drinking_water,,,,,,,,,,,,,,,,,,,,,,;;
5782900754,41.9878133,21.4457433,fast_food,,Пицерија Џокер,Pizza Joker,,,,,1000,,,,,,Mo-Fr 09:00-23:00; Sa 11:00-11:00; Su 12:00-20:00,,,,,,,+38976840031,
5789449053,41.9995917,21.4361151,restaurant,,СНОШТИ МИНАВ,SNOSTI MINAV,,,,,,,,,,,,,,,,,,,;;
5798860062,41.9392769,21.5160955,bureau_de_change,,,,,,,,,,,,,,,,,,,,,,;;
5798860601,41.9393740,21.5161830,atm,,,,,,,,,,,,,,,НЛБ Банка,,,,,,,;;
5798861909,41.9392561,21.5161585,restaurant,,,,,,,,,,,,,,,,,,,,,,;;
5807750050,41.9952880,21.4367281,restaurant,,,,,,,,,,,,,,,,,,,,,,;;
5807750051,41.9981594,21.4304538,bar,,,,,,,,,,,,,,,,,,,,,,;;
5813417254,42.0009079,21.4200655,restaurant,,Кафана Дебар Маало,Kafana Debar Maalo,,,Живко Чинго,,1000,,,,,,Mo-Th 08:00-00:00; Fr-Su 08:00-01:00,,,,,,,+38971279660,;
5830234866,41.9600200,21.2952137,restaurant,,Fish Grill (Macedonian Cave Restaurant),,,,,,,,,,,,Mo-Su 09:00-21:00,,,,,,,,;;
5830234869,41.9517521,21.2992329,boat_rental,,Изнајмување чамец „Кенан“,Boat Trip Kenan,,,,,,,,,,,,,,,,,,,;;
5830234870,41.9504927,21.2994019,boat_rental,,Изнајмување чамец и кајаци „Алмата прима“,Almata Prima Boat trip and Kayak Rental,,,,,,,,,,,,,,,,,,,https://almata-prima-kayak-rental-and.business.site/;;
5840484087,42.0031615,21.4001853,restaurant,,Буре,,,,,,,,,,,,,,,,,,,,;;
5841674946,42.0022334,21.4352595,drinking_water,,,,,,,,,,,,,,,,,,,,,,;;
5841696839,41.9752419,21.4088614,bench,,,,,,,,,,,,,,,,,,,,,,;;
5841696840,41.9753979,21.4082288,bench,,,,,,,,,,,,,,,,,,,,,,;;
5841696876,41.9655334,21.3950754,bench,,,,,,,,,,,,,,,,,,,,,,;;
5841696878,41.9655406,21.3951182,waste_basket,,,,,,,,,,,,,,,,,,,,,,;;
5841696879,41.9651176,21.3942912,waste_disposal,,,,,,,,,,,,,,,,,,,,,,;;
5841696956,41.9651051,21.3943158,cafe,,,,,,,,,,,,,,,,,,,,,,;;
5841696980,41.9734422,21.4029805,shelter,,,,,,,,,,,,,,,,,,,,,,;;
5841719690,42.0018488,21.4324361,shelter,,,,,,,,,,,,,,,,,,,,,,;;
5841843563,41.9584413,21.2954889,cafe,,Fresh,,,,,,,,,,,,,,,,,,,,;;
5846660690,41.9967891,21.4283169,school,,Casta Diva,,,,Васил Главинов,7/30,1000,,,,,,16:00-22:00,,,,,,,+38923220205,http://www.castadiva.com.mk;;
5847433810,42.0230826,21.4327811,driving_school,,Auto Shkolla Zebra,,,Cкoпje,2ra Makedonska Brigada,7,1000,,,,,,Mo-Fr 09:00-18:00; Sa 10:00-16:00,,,,,,,+38970215214,http://www.autoshkollazebra.com/;
5851958485,41.9881026,21.4717874,doctors,,,,,,,,1000,,,,,,Mo-Fr 00:00-24:00,,,,,,,,;;
5859109291,42.0094177,21.4346717,pharmacy,,,,,,Свети Прохор Пчински,,,,,,,,,,,,,,,,;;
5859233985,42.0128215,21.4341981,cafe,,Kandi,Kandy,,,,,255,,,,,,Mo-Su 07:15-00:00,Mensur&Hasan,,,,,,,;;
5863885686,42.0026460,21.4614608,bar,,Ле Петит,Le Petit,,,,,1000,,,,,,Mo-Su 08:00-01:00,,,,,,,,;;
5869018606,42.0026892,21.4605034,fast_food,,Млечен ресторант АНЕ,,,,,,,,,,,,,,,,,,,,;;
5901737591,41.9956625,21.4320988,pub,,,Pivnika Temov,,,,,,,,,,,,,,,,,,,;;
5901752386,42.0001822,21.4360203,pub,,,Damar,,,,,,,,,,,,,,,,,,,;;
5901752487,42.0001818,21.4358622,pub,,,Winery Temov,,,,,,,,,,,,,,,,,,,;;
5908867785,41.9945181,21.4383755,bar,,,Old lady beer bar,,,,,,,,,,,,,,,,,,,;;
5942588790,41.9932054,21.4342834,drinking_water,,,,,,,,,,,,,,,,,,,,,,;;
5942592987,42.0157614,21.4461539,drinking_water,,,,,,,,,,,,,,,,,,,,,,;;
5964767286,41.9600725,21.2953055,restaurant,,,Macedonian Cave Restaurant FISH,,,,,,,,,,,,,,,,,,,;;
5968279888,41.9989349,21.4353025,fast_food,,,Gelateria Mony,,,,,,,,,,,,,,,,,,,;;
6018277285,41.9987593,21.4242861,cafe,,,7 Grama Espresso Studio,,,,,,,,,,,,,,,,,,,;;
6018277485,41.9971825,21.4284228,cafe,,Squeeze Me,Squeeze Me,,,,,,,,,,,Mo-Su 09:00-21:00,,,,,,,,;;
6030006585,41.9974347,21.4344946,atm,,,,,,,,,,,,,,,Halkbank,,,,,,,;;
6030006586,41.9952698,21.4328457,atm,,,,,,,,,,,,,,,Охридска Банка,,,,,,,;;
6032865185,41.9653983,21.3954441,toilets,,,,,,,,,,,,,,,,,,,,,,;;
6032865285,42.0002555,21.4361778,cafe,,k8,,,,,,,,,,,,Mo-Su 10:00-22:00,,,,,,,,;;
6032865286,42.0002786,21.4371953,restaurant,,Pçela,,,,,,,,,,,,,,,,,,,,;;
6050820783,41.9854775,21.4649152,parking_entrance,,,,,,,,,,,,,,,,,,,,,,;;
6050820784,41.9853877,21.4650734,parking_entrance,,,,,,,,,,,,,,,,,,,,,,;;
6054020289,41.9950329,21.4250953,pharmacy,,,,,,,,,,,,,,,,,,,,,,;;
6054020294,41.9946427,21.4186412,cafe,,,,,,,,,,,,,,,,,,,,,,;;
6054032909,41.9890157,21.4362670,pharmacy,,,,,,,,,,,,,,,,,,,,,,;;
6054032910,41.9971537,21.4284187,bar,,,,,,,,,,,,,,,,,,,,,,;;
6054032912,41.9970171,21.4284390,cafe,,Manda Coffee Bar,,,,,,,,,,,,Mo-Su 09:00-21:00,,,,,,,,;;
6054032915,41.9987688,21.4235372,casino,,,,,,,,,,,,,,,,,,,,,,;;
6054034632,41.9988629,21.4232956,casino,,Admiral,,,,,,,,,,,,,,,,,,,,;;
6054035529,41.9874105,21.4328978,pharmacy,,,,,,,,,,,,,,,,,,,,,,;;
6054035531,41.9938132,21.4269070,pharmacy,,,,,,,,,,,,,,,,,,,,,,;;
6054035625,41.9938495,21.4276020,cafe,,,,,,,,,,,,,,,,,,,,,,;;
6054036207,41.9911273,21.4449511,fast_food,,,,,,,,,,,,,,,,,,,,,,;;
6054036208,41.9900873,21.4471750,place_of_worship,,,,,,,,,,,,,,,,,,,,,,;;
6054036209,41.9963482,21.4276726,bank,,НЛБ Банка,NLB Bank,,,,,,,,,,,Mo-Fr 08:00-17:00; Sa 09:00-13:00,НЛБ Банка АД Скопје,,,,,,,https://nlb.mk/;
6054036210,41.9982191,21.4173084,post_office,,,,,,,,,,,,,,,,,,,,,,;;
6054036211,41.9992004,21.4172240,cafe,,,,,,,,,,,,,,,,,,,,,,;;
6054036212,41.9990907,21.4172361,cafe,,,,,,,,,,,,,,,,,,,,,,;;
6054036214,41.9994044,21.4200771,atm,,,,,,,,,,,,,,,Охридска Банка,,,,,,,;;
6054037094,41.9937523,21.4275923,bank,,Sparkasse,,,,,,,,,,,,,,,,,,,,;;
6054047485,41.9863979,21.4275821,police,,,,,,,,,,,,,,,,,,,,,,;;
6054048486,42.0021215,21.4378319,restaurant,,,Bratstvo,,,,,,,,,,,,,,,,,,,;;
6054048489,41.9998538,21.4159092,casino,,Astral casino,,,,,,,,,,,,,,,,,,,,;;
6054048491,41.9975826,21.4242615,casino,,Сенатор,Senator,,,,,,,,,,,,,,,,,,,;;
6054048492,41.9970085,21.4233514,cafe,,,,,,,,,,,,,,,,,,,,,,;;
6054048496,41.9927909,21.4301511,fast_food,,,,,,,,,,,,,,,,,,,,,,;;
6054048498,42.0027291,21.4387967,fast_food,,,,,,,,,,,,,,,,,,,,,,;;
6054048499,41.9588100,21.2952909,restaurant,,,,,,,,,,,,,,,,,,,,,,;;
6054048500,41.9797275,21.3056706,cafe,,,,,,,,,,,,,,,,,,,,,,;;
6054048501,41.9996839,21.3278644,cafe,,,,,,,,,,,,,,,,,,,,,,;;
6054048502,42.0067272,21.3569970,bank,,Стопанска Банка,,,,,,,,,,,,,,,,,,,,;;
6054048507,41.9968420,21.4395864,fast_food,,,,,,,,,,,,,,,,,,,,,,;;
6054048508,41.9889311,21.4760126,fuel,,,,,,,,,,,,,,,,,,,,,,;;
6054048514,41.9947284,21.4155108,car_wash,,,,,,,,,,,,,,,,,,,,,,;;
6054048515,41.9946950,21.4158905,car_wash,,,,,,,,,,,,,,,,,,,,,,;;
6054048686,42.0022315,21.4394965,post_office,,,,,,,,,,,,,,,,,,,,,,;;
6054048689,41.9985752,21.4154009,pharmacy,,,,,,,,,,,,,,,,,,,,,,;;
6054048692,41.9993211,21.4184238,fast_food,,Cafe Pauza,,,,,,,,,,,,,,,,,,,,;;
6054048693,41.9989695,21.4184652,fast_food,,,,,,,,,,,,,,,,,,,,,,;;
6054048696,42.0037034,21.4154682,restaurant,,,,,,,,,,,,,,,,,,,,,,;;
6054048697,42.0037486,21.4155218,pharmacy,,,,,,,,,,,,,,,,,,,,,,;;
6054048699,41.9994721,21.4299909,toilets,,,,,,,,,,,,,,,,,,,,,,;;
6054048700,41.9972228,21.4228991,restaurant,,,,,,,,,,,,,,,,,,,,,,;;
6054048704,41.9993227,21.4385890,casino,,,,,,,,,,,,,,,,,,,,,,;;
6054048705,41.9995711,21.4356281,restaurant,,Austrian Palace,,,,,,,,,,,,Mo-Su 09:00-24:00,,,,,,,,;;
6054048706,41.9999118,21.4353545,bar,,,,,,,,,,,,,,,,,,,,,,;;
6054048709,41.9962956,21.3231160,fuel,,,,,,,,,,,,,,,,,,,,,,;;
6054048711,42.0069917,21.3658492,bank,,Komercijalna Banka,,,,,,,,,,,,,,,,,,,,;;
6054048712,42.0043198,21.3840568,casino,,,,,,,,,,,,,,,,,,,,,,;;
6054048713,42.0022668,21.3989930,school,,Универзитет за туризам и менаџмент,,,,,,,,,,,,,,,,,,,,;;
6054048715,41.9984708,21.4225838,bank,,Silk road,,,,,,,,,,,,,,,,,,,,;;
6054048717,41.9980393,21.4243660,casino,,,,,,,,,,,,,,,,,,,,,,;;
6054048718,41.9980241,21.4247600,casino,,,,,,,,,,,,,,,,,,,,,,;;
6054048719,41.9970967,21.4284040,pharmacy,,,,,,,,,,,,,,,,,,,,,,;;
6054048723,41.9993025,21.4184814,bank,,Sparkasse,,,,,,,,,,,,,,,,,,,,;;
6054048726,42.0003534,21.4158769,cafe,,Paladin M,,,,,,,,,,,,,,,,,,,,;;
6054048728,41.9971577,21.4120582,fast_food,,,,,,,,,,,,,,,,,,,,,,;;
6054048730,41.9956195,21.4113168,cafe,,Woodstock,,,,,,,,,,,,,,,,,,,,;;
6054048885,42.0011364,21.4367075,place_of_worship,,,,,,,,,,,,,,,,,,,,,,;;
6054048888,41.9964634,21.4403185,pharmacy,,Аптека,,,,Булевар Крсте Мисирков,,,,,,,,,,,,,,,,;;
6054049786,41.9971812,21.4273087,casino,,,,,,,,,,,,,,,,,,,,,,;;
6054049788,41.9975168,21.4238695,fast_food,,,,,,,,,,,,,,,,,,,,,,;;
6054049790,41.9965743,21.4188403,bar,,,,,,,,,,,,,,,,,,,,,,;;
6054049797,41.9952638,21.4235236,casino,,,,,,,,,,,,,,,,,,,,,,;;
6054049799,42.0080679,21.3687237,bank,,Silkroad Bank,,,,,,,,,,,,,,,,,,,,;;
6054049800,42.0002111,21.4132362,pharmacy,,,,,,,,,,,,,,,,,,,,,,;;
6054049804,41.9985771,21.4245324,casino,,,,,,,,,,,,,,,,,,,,,,;;
6054049807,41.9963341,21.4284468,casino,,,,,,,,,,,,,,,,,,,,,,;;
6054049810,42.0002627,21.4162338,casino,,Senator,,,,,,,,,,,,,,,,,,,,;;
6054049813,41.9947238,21.4173314,cafe,,,,,,,,,,,,,,,,,,,,,,;;
6054049814,42.0004829,21.4603461,fast_food,,,,,,,,,,,,,,,,,,,,,,;;
6054050086,41.9946111,21.4207756,restaurant,,,,,,,,,,,,,,,,,,,,,,;;
6054050088,41.9995676,21.4266118,pharmacy,,Zegin,,,,,,,,,,,,Mo-Fr 07:00-21:00; Sa 08:00-21:00,,,,,,,,;
6054050089,42.0017934,21.4348281,university,International Balkan University,Меѓународен балкански универзитет,,,,Самоилова,,,,,,,,,,,,,,,,;;
6054050093,41.9985010,21.4224854,pharmacy,,Zegin,,,,,,,,,,,,,,,,,,,,;;
6054050094,41.9982041,21.4239494,fast_food,,,,,,,,,,,,,,,,,,,,,,;;
6054050095,41.9980418,21.4244255,cafe,,,,,,,,,,,,,,,,,,,,,,;;
6054050096,41.9991977,21.4189624,bank,,Halbank,,,,,,,,,,,,,,,,,,,,;;
6054050097,42.0004895,21.4152598,pharmacy,,Betty,,,,,,,,,,,,,,,,,,,,;;
6054050099,41.9947932,21.4135121,restaurant,,Воденица,,,,,,,,,,,,,,,,,,,,;;
6054050785,41.9952217,21.4231640,pharmacy,,,,,,,,,,,,,,Mo-Fr 08:00-21:00; Sa 08:00-18:00; Su 08:00-15:00,,,,,,,,
6054050786,41.9986877,21.4142348,restaurant,,,,,,,,,,,,,,,,,,,,,,;;
6054050788,41.9974733,21.4121588,car_wash,,,,,,,,,,,,,,,,,,,,,,;;
6080715746,41.9842064,21.4512820,fuel,,Макпетрол,Makpetrol,,,,,,,,,,,,,,,,,,,;;
6083076481,41.9921300,21.4275923,charging_station,,,,,,,,,,,,,,24/7,EVN,,,,,,,;;
6083093014,41.9867146,21.4651780,charging_station,,,,,,,,,,,,,,24/7,EVN,,,,,,,;;
6083095650,41.9948629,21.4322161,charging_station,,,,,,,,,,,,,,24/7,EVN,,,,,,,;;
6083122260,42.0053710,21.4180965,charging_station,,,,,,,,,,,,,,24/7,EVN,,,,,,,;;
6083138846,42.0136336,21.4035307,charging_station,,,,,,,,,,,,,,24/7,EVN,,,,,,,;;
6083264835,42.0061889,21.4269103,charging_station,,,,,,,,,,,,,,24/7,EVN,,,,,,,;;
6089711779,42.0038026,21.3970638,cafe,,Led Zeppelin,,,,,,,,,,,,,,,,,,,,;;
6089900439,42.0091302,21.3632349,charging_station,,,,,,,,,,,,,,24/7,EVN,,,,,,,;;
6089906066,42.0067912,21.3724961,charging_station,,,,,,,,,,,,,,24/7,EVN,,,,,,,;;
6089907922,41.9947319,21.4119700,charging_station,,,,,,,,,,,,,,24/7,EVN,,,,,,,;;
6089911198,42.0048405,21.4192586,charging_station,,,,,,,,,,,,,,24/7,EVN,,,,,,,;;
6089917927,41.9887319,21.4775368,charging_station,,,,,,,,,,,,,,24/7,EVN,,,,,,,;;
6089919955,42.0070408,21.4870891,charging_station,,,,,,,,,,,,,,24/7,EVN,,,,,,,;;
6099319532,42.0050301,21.3912574,bicycle_parking,,,,,,,,,,,,,,,yyy,,,,,,,;;
6102488864,41.9959518,21.4199442,restaurant,,Restoran Frosina,,,,,,,,,,,,,,,,,,,,;;
6102488865,41.9958730,21.4189424,coworking_space,,Co-work,,,,,,,,,,,,,,,,,,,,;;
6111410917,41.9856301,21.4151765,parking,,,,,,,,,,,,,,,,,,,,,,;;
6137491236,41.9876789,21.4327865,bank,,Стопанска Банка,,,,,,,,,,,,,,,,,,,,;;
6145381755,42.0030494,21.3994796,cafe,,Sugarland,,,,,,,,,,,,,,,,,,,,;;
6145435980,41.9927293,21.4652984,restaurant,,,,,,,,,,,,,,,,,,,,,,;;
6164710346,42.0045428,21.4100450,bicycle_parking,,,,,,,,,,,,,,,,,,,,,,;;
6164755129,42.0053452,21.4101783,fast_food,,Bon Appetit,,,,,,,,,,,,,ЈОНС-ТРОЈКА Кетеринг,,,,,,,;;
6228007184,42.0045660,21.3937780,cafe,,Krem,,,,,,,,,,,,,,,,,,,,;;
6241631975,42.0051093,21.3673535,car_wash,,,,,,,,,,,,,,,,,,,,,,;;
6258693385,42.0010232,21.4127132,casino,,Astra,,,,,,,,,,,,,,,,,,,,;;
6268687385,41.9826324,21.4520444,restaurant,,Gala Kujna,,,,,,,,,,,,,,,,,,,,;;
6275107313,41.9991750,21.4391635,bank,,Western Union,,,,Булевар Гоце Делчев,,,,,,,,,,,,,,,,;;
6275187295,42.0365961,21.4462164,restaurant,,EZO,,,,,,,,,,,,,,,,,,,,;;
6275187296,42.0386390,21.4470962,place_of_worship,,Свети Јован Крстител,,,,,,,,,,,,,,,,,,,,;;
6276874495,42.0283970,21.3540423,pharmacy,,,,,,,,,,,,,,,,,,,,,,;;
6276899255,41.9971777,21.5726598,pharmacy,,,,,,,20,,,,,,,,,,,,,,,;;
6277259440,41.9944767,21.5758838,atm,,Halkbank,,,,,,,,,,,,,,,,,,,,;;
6277304326,42.0142495,21.4457121,bank,,Halkbank,,,,Булевар Христијан Тодоровски Карпош,,,,,,,,,,,,,,,,;;
6277485879,42.0318721,21.4451174,bus_station,,,,,,,,,,,,,,,,,,,,,,;;
6277485880,42.0310100,21.4445186,marketplace,,пент маркет,,,,,,,,,,,,,,,,,,,,;;
6278471769,42.0127048,21.4100468,restaurant,,Меана Б Јавор Мрзенци,,,,,,,,,,,,,,,,,,,,;;
6278889139,42.0105657,21.4406066,pharmacy,,Bett,,,,Коста Абрашевиќ,,,,,,,,,,,,,,,,;;
6279058422,42.0304003,21.4447546,bank,,НЛБ Тутунска Банка,,,,,,,,,,,,,,,,,,,,;;
6279112992,42.0263239,21.3806391,clinic,,,,,,,,,,,,,,,,,,,,,,;;
6279225885,42.0065882,21.3590935,bank,,Halkbank,,,,Булевар Ѓорче Петров,27,,,,,,,,,,,,,,,;;
6279225900,42.0068054,21.3590232,pharmacy,,,,,,Булевар Ѓорче Петров,,,,,,,,,,,,,,,,;;
6279558224,42.0369084,21.4321355,place_of_worship,,,,,,,,,,,,,,,,,,,,,,;;
6279836416,41.9907383,21.4259201,pharmacy,,Аптека,,,,Железничка,,,,,,,,,,,,,,,,;;
6279846683,41.9922216,21.3275880,pharmacy,,Barnatore,,,,,,,,,,,,,,,,,,,,;;
6281468172,42.0261406,21.5633626,pharmacy,,,,,,,,,,,,,,,,,,,,,,;;
6281485100,41.9997182,21.3284513,clinic,,Dr. Xhoni Dental Clinic,,,,,,,,,,,,,,,,,,,,;;
6281492651,42.0022117,21.4401439,bank,,Стопанска Банка,,,,Булевар Крсте Мисирков,,,,,,,,,,,,,,,,;;
6281672839,41.9979914,21.3255840,pharmacy,,,,,,,,,,,,,,,,,,,,,,;;
6281672840,41.9980469,21.3256447,dentist,,Family Dental,,,,,,,,,,,,,,,,,,,,;;
